{
  "records": [
    {
      "t": 67852,
      "g": "$GPGGA,215303.20,1559.39149,S,04802.66492,W,1,06,2.03,1233.2,M,-11.7,M,,*44"
    },
    {
      "t": 68052,
      "g": "$GPGGA,215303.40,1559.39149,S,04802.66496,W,1,06,2.03,1233.3,M,-11.7,M,,*47"
    },
    {
      "t": 68253,
      "g": "$GPGGA,215303.60,1559.39152,S,04802.66503,W,1,06,2.03,1233.3,M,-11.7,M,,*42"
    },
    {
      "t": 68449,
      "g": "$GPGGA,215303.80,1559.39149,S,04802.66509,W,1,06,2.03,1233.3,M,-11.7,M,,*4C"
    },
    {
      "t": 68656,
      "g": "$GPGGA,215304.00,1559.39146,S,04802.66515,W,1,06,2.03,1233.4,M,-11.7,M,,*46"
    },
    {
      "t": 68852,
      "g": "$GPGGA,215304.20,1559.39149,S,04802.66522,W,1,06,2.03,1233.3,M,-11.7,M,,*48"
    },
    {
      "t": 69056,
      "g": "$GPGGA,215304.40,1559.39152,S,04802.66531,W,1,06,2.03,1233.3,M,-11.7,M,,*46"
    },
    {
      "t": 69252,
      "g": "$GPGGA,215304.60,1559.39142,S,04802.66531,W,1,06,2.03,1233.2,M,-11.7,M,,*44"
    },
    {
      "t": 69456,
      "g": "$GPGGA,215304.80,1559.39139,S,04802.66535,W,1,06,2.03,1233.1,M,-11.7,M,,*41"
    },
    {
      "t": 69652,
      "g": "$GPGGA,215305.00,1559.39131,S,04802.66541,W,1,06,2.03,1233.1,M,-11.7,M,,*43"
    },
    {
      "t": 69851,
      "g": "$GPGGA,215305.20,1559.39122,S,04802.66550,W,1,06,2.03,1233.0,M,-11.7,M,,*42"
    },
    {
      "t": 70056,
      "g": "$GPGGA,215305.40,1559.39122,S,04802.66562,W,1,06,2.03,1233.1,M,-11.7,M,,*44"
    },
    {
      "t": 70257,
      "g": "$GPGGA,215305.60,1559.39119,S,04802.66571,W,1,06,2.03,1233.1,M,-11.7,M,,*4C"
    },
    {
      "t": 70452,
      "g": "$GPGGA,215305.80,1559.39103,S,04802.66578,W,1,06,2.03,1232.9,M,-11.7,M,,*49"
    },
    {
      "t": 70657,
      "g": "$GPGGA,215306.00,1559.39095,S,04802.66584,W,1,06,2.03,1232.9,M,-11.7,M,,*4F"
    },
    {
      "t": 70857,
      "g": "$GPGGA,215306.20,1559.39073,S,04802.66589,W,1,06,2.03,1232.7,M,-11.7,M,,*46"
    },
    {
      "t": 71058,
      "g": "$GPGGA,215306.40,1559.39068,S,04802.66607,W,1,06,2.03,1232.8,M,-11.7,M,,*40"
    },
    {
      "t": 71251,
      "g": "$GPGGA,215306.60,1559.39066,S,04802.66622,W,1,06,2.03,1232.9,M,-11.7,M,,*4A"
    },
    {
      "t": 71459,
      "g": "$GPGGA,215306.80,1559.39049,S,04802.66616,W,1,08,1.04,1232.7,M,-11.7,M,,*4A"
    },
    {
      "t": 71658,
      "g": "$GPGGA,215307.00,1559.39049,S,04802.66627,W,1,08,1.04,1232.8,M,-11.7,M,,*4E"
    },
    {
      "t": 71859,
      "g": "$GPGGA,215307.20,1559.39044,S,04802.66641,W,1,08,1.04,1232.9,M,-11.7,M,,*40"
    },
    {
      "t": 72058,
      "g": "$GPGGA,215307.40,1559.39036,S,04802.66652,W,1,08,1.04,1232.9,M,-11.7,M,,*41"
    },
    {
      "t": 72261,
      "g": "$GPGGA,215307.60,1559.39029,S,04802.66659,W,1,08,1.04,1232.9,M,-11.7,M,,*46"
    },
    {
      "t": 72457,
      "g": "$GPGGA,215307.80,1559.39014,S,04802.66658,W,1,08,1.04,1232.8,M,-11.7,M,,*46"
    },
    {
      "t": 72658,
      "g": "$GPGGA,215308.00,1559.39009,S,04802.66663,W,1,08,1.04,1232.8,M,-11.7,M,,*45"
    },
    {
      "t": 72858,
      "g": "$GPGGA,215308.20,1559.39006,S,04802.66676,W,1,08,1.04,1232.8,M,-11.7,M,,*4C"
    },
    {
      "t": 73061,
      "g": "$GPGGA,215308.40,1559.38994,S,04802.66690,W,1,08,1.04,1232.7,M,-11.7,M,,*4E"
    },
    {
      "t": 73260,
      "g": "$GPGGA,215308.60,1559.38989,S,04802.66707,W,1,08,1.04,1232.8,M,-11.7,M,,*40"
    },
    {
      "t": 73460,
      "g": "$GPGGA,215308.80,1559.38982,S,04802.66715,W,1,08,1.04,1232.8,M,-11.7,M,,*46"
    },
    {
      "t": 73659,
      "g": "$GPGGA,215309.00,1559.38962,S,04802.66710,W,1,08,1.04,1232.7,M,-11.7,M,,*4B"
    },
    {
      "t": 73860,
      "g": "$GPGGA,215309.20,1559.38952,S,04802.66712,W,1,08,1.04,1232.7,M,-11.7,M,,*48"
    },
    {
      "t": 74056,
      "g": "$GPGGA,215309.40,1559.38925,S,04802.66701,W,1,08,1.04,1232.5,M,-11.7,M,,*4E"
    },
    {
      "t": 74259,
      "g": "$GPGGA,215309.60,1559.38900,S,04802.66695,W,1,08,1.04,1232.2,M,-11.7,M,,*40"
    },
    {
      "t": 74456,
      "g": "$GPGGA,215309.80,1559.38884,S,04802.66700,W,1,08,1.04,1232.3,M,-11.7,M,,*4F"
    },
    {
      "t": 74661,
      "g": "$GPGGA,215310.00,1559.38868,S,04802.66689,W,1,08,1.04,1232.0,M,-11.7,M,,*4E"
    },
    {
      "t": 74858,
      "g": "$GPGGA,215310.20,1559.38857,S,04802.66693,W,1,08,1.04,1232.0,M,-11.7,M,,*4B"
    },
    {
      "t": 75059,
      "g": "$GPGGA,215310.40,1559.38844,S,04802.66694,W,1,08,1.04,1232.0,M,-11.7,M,,*48"
    },
    {
      "t": 75256,
      "g": "$GPGGA,215310.60,1559.38824,S,04802.66695,W,1,08,1.04,1231.8,M,-11.7,M,,*46"
    },
    {
      "t": 75460,
      "g": "$GPGGA,215310.80,1559.38809,S,04802.66700,W,1,08,1.04,1231.9,M,-11.7,M,,*4B"
    },
    {
      "t": 75658,
      "g": "$GPGGA,215311.00,1559.38794,S,04802.66698,W,1,08,1.04,1231.7,M,-11.7,M,,*47"
    },
    {
      "t": 75860,
      "g": "$GPGGA,215311.20,1559.38769,S,04802.66699,W,1,08,1.04,1231.5,M,-11.7,M,,*44"
    },
    {
      "t": 76058,
      "g": "$GPGGA,215311.40,1559.38753,S,04802.66692,W,1,08,1.04,1231.3,M,-11.7,M,,*46"
    },
    {
      "t": 76259,
      "g": "$GPGGA,215311.60,1559.38738,S,04802.66683,W,1,08,1.04,1231.0,M,-11.7,M,,*4A"
    },
    {
      "t": 76459,
      "g": "$GPGGA,215311.80,1559.38717,S,04802.66683,W,1,08,1.04,1230.8,M,-11.7,M,,*40"
    },
    {
      "t": 76656,
      "g": "$GPGGA,215312.00,1559.38693,S,04802.66676,W,1,08,1.04,1230.7,M,-11.7,M,,*43"
    },
    {
      "t": 76859,
      "g": "$GPGGA,215312.20,1559.38665,S,04802.66670,W,1,08,1.04,1230.5,M,-11.7,M,,*4C"
    },
    {
      "t": 77059,
      "g": "$GPGGA,215312.40,1559.38648,S,04802.66670,W,1,08,1.04,1230.3,M,-11.7,M,,*43"
    },
    {
      "t": 77257,
      "g": "$GPGGA,215312.60,1559.38634,S,04802.66671,W,1,08,1.04,1230.3,M,-11.7,M,,*4B"
    },
    {
      "t": 77459,
      "g": "$GPGGA,215312.80,1559.38622,S,04802.66670,W,1,08,1.04,1230.2,M,-11.7,M,,*42"
    },
    {
      "t": 77657,
      "g": "$GPGGA,215313.00,1559.38610,S,04802.66671,W,1,08,1.04,1230.1,M,-11.7,M,,*48"
    },
    {
      "t": 77858,
      "g": "$GPGGA,215313.20,1559.38593,S,04802.66678,W,1,08,1.04,1230.1,M,-11.7,M,,*4B"
    },
    {
      "t": 78052,
      "g": "$GPGGA,215313.40,1559.38578,S,04802.66680,W,1,08,1.04,1230.1,M,-11.7,M,,*4F"
    },
    {
      "t": 78259,
      "g": "$GPGGA,215313.60,1559.38550,S,04802.66675,W,1,08,1.04,1229.8,M,-11.7,M,,*4C"
    },
    {
      "t": 78457,
      "g": "$GPGGA,215313.80,1559.38529,S,04802.66672,W,1,08,1.04,1229.6,M,-11.7,M,,*45"
    },
    {
      "t": 78658,
      "g": "$GPGGA,215314.00,1559.38514,S,04802.66673,W,1,08,1.04,1229.6,M,-11.7,M,,*45"
    },
    {
      "t": 78859,
      "g": "$GPGGA,215314.20,1559.38503,S,04802.66669,W,1,08,1.04,1229.4,M,-11.7,M,,*48"
    },
    {
      "t": 79060,
      "g": "$GPGGA,215314.40,1559.38497,S,04802.66670,W,1,08,1.04,1229.4,M,-11.7,M,,*4A"
    },
    {
      "t": 79256,
      "g": "$GPGGA,215314.60,1559.38488,S,04802.66673,W,1,08,1.04,1229.3,M,-11.7,M,,*42"
    },
    {
      "t": 79455,
      "g": "$GPGGA,215314.80,1559.38479,S,04802.66673,W,1,08,1.04,1229.2,M,-11.7,M,,*43"
    },
    {
      "t": 79659,
      "g": "$GPGGA,215315.00,1559.38470,S,04802.66667,W,1,08,1.04,1229.1,M,-11.7,M,,*45"
    },
    {
      "t": 79860,
      "g": "$GPGGA,215315.20,1559.38455,S,04802.66668,W,1,08,1.04,1229.0,M,-11.7,M,,*4E"
    },
    {
      "t": 80059,
      "g": "$GPGGA,215315.40,1559.38444,S,04802.66675,W,1,08,1.04,1229.0,M,-11.7,M,,*44"
    },
    {
      "t": 80260,
      "g": "$GPGGA,215315.60,1559.38424,S,04802.66665,W,1,08,1.04,1228.9,M,-11.7,M,,*49"
    },
    {
      "t": 80459,
      "g": "$GPGGA,215315.80,1559.38398,S,04802.66660,W,1,08,1.04,1228.6,M,-11.7,M,,*4D"
    },
    {
      "t": 80661,
      "g": "$GPGGA,215316.00,1559.38376,S,04802.66646,W,1,08,1.04,1228.4,M,-11.7,M,,*40"
    },
    {
      "t": 80854,
      "g": "$GPGGA,215316.20,1559.38351,S,04802.66640,W,1,08,1.04,1228.1,M,-11.7,M,,*44"
    },
    {
      "t": 81061,
      "g": "$GPGGA,215316.40,1559.38329,S,04802.66635,W,1,08,1.04,1227.9,M,-11.7,M,,*48"
    },
    {
      "t": 81257,
      "g": "$GPGGA,215316.60,1559.38309,S,04802.66631,W,1,08,1.04,1227.8,M,-11.7,M,,*4D"
    },
    {
      "t": 81461,
      "g": "$GPGGA,215316.80,1559.38275,S,04802.66620,W,1,08,1.04,1227.4,M,-11.7,M,,*45"
    },
    {
      "t": 81657,
      "g": "$GPGGA,215317.00,1559.38253,S,04802.66620,W,1,08,1.04,1227.3,M,-11.7,M,,*4F"
    },
    {
      "t": 81860,
      "g": "$GPGGA,215317.20,1559.38241,S,04802.66622,W,1,08,1.04,1227.2,M,-11.7,M,,*4D"
    },
    {
      "t": 82058,
      "g": "$GPGGA,215317.40,1559.38229,S,04802.66622,W,1,08,1.04,1227.1,M,-11.7,M,,*46"
    },
    {
      "t": 82255,
      "g": "$GPGGA,215317.60,1559.38213,S,04802.66626,W,1,08,1.04,1227.0,M,-11.7,M,,*48"
    },
    {
      "t": 82457,
      "g": "$GPGGA,215317.80,1559.38195,S,04802.66618,W,1,08,1.04,1226.7,M,-11.7,M,,*40"
    },
    {
      "t": 82660,
      "g": "$GPGGA,215318.00,1559.38188,S,04802.66612,W,1,08,1.04,1226.4,M,-11.7,M,,*42"
    },
    {
      "t": 82857,
      "g": "$GPGGA,215318.20,1559.38187,S,04802.66617,W,1,08,1.04,1226.4,M,-11.7,M,,*4A"
    },
    {
      "t": 83060,
      "g": "$GPGGA,215318.40,1559.38183,S,04802.66619,W,1,08,1.04,1226.3,M,-11.7,M,,*41"
    }
  ]
}
