{
  "records": [
    {
      "t": 185463,
      "g": "$GPGGA,215500.80,1559.39331,S,04802.66760,W,1,07,1.57,1236.3,M,-11.7,M,,*4F"
    },
    {
      "t": 185651,
      "g": "$GPGGA,215501.00,1559.39315,S,04802.66768,W,1,07,1.57,1236.3,M,-11.7,M,,*48"
    },
    {
      "t": 185854,
      "g": "$GPGGA,215501.20,1559.39302,S,04802.66759,W,1,07,1.57,1236.1,M,-11.7,M,,*4C"
    },
    {
      "t": 186054,
      "g": "$GPGGA,215501.40,1559.39288,S,04802.66757,W,1,07,1.57,1235.9,M,-11.7,M,,*4C"
    },
    {
      "t": 186254,
      "g": "$GPGGA,215501.60,1559.39275,S,04802.66765,W,1,07,1.57,1235.9,M,-11.7,M,,*4D"
    },
    {
      "t": 186451,
      "g": "$GPGGA,215501.80,1559.39252,S,04802.66767,W,1,07,1.56,1235.9,M,-11.7,M,,*45"
    },
    {
      "t": 186656,
      "g": "$GPGGA,215502.00,1559.39231,S,04802.66769,W,1,07,1.56,1235.7,M,-11.7,M,,*4B"
    },
    {
      "t": 186851,
      "g": "$GPGGA,215502.20,1559.39229,S,04802.66782,W,1,07,1.56,1235.7,M,-11.7,M,,*45"
    },
    {
      "t": 187052,
      "g": "$GPGGA,215502.40,1559.39217,S,04802.66784,W,1,07,1.56,1235.5,M,-11.7,M,,*4A"
    },
    {
      "t": 187251,
      "g": "$GPGGA,215502.60,1559.39184,S,04802.66790,W,1,07,1.56,1235.3,M,-11.7,M,,*42"
    },
    {
      "t": 187456,
      "g": "$GPGGA,215502.80,1559.39141,S,04802.66797,W,1,07,1.56,1235.2,M,-11.7,M,,*43"
    },
    {
      "t": 187655,
      "g": "$GPGGA,215503.00,1559.39113,S,04802.66792,W,1,07,1.56,1235.1,M,-11.7,M,,*4B"
    },
    {
      "t": 187856,
      "g": "$GPGGA,215503.20,1559.39092,S,04802.66793,W,1,07,1.56,1235.1,M,-11.7,M,,*40"
    },
    {
      "t": 188056,
      "g": "$GPGGA,215503.40,1559.39066,S,04802.66792,W,1,07,1.56,1234.9,M,-11.7,M,,*45"
    },
    {
      "t": 188259,
      "g": "$GPGGA,215503.60,1559.39037,S,04802.66787,W,1,07,1.56,1234.9,M,-11.7,M,,*47"
    },
    {
      "t": 188450,
      "g": "$GPGGA,215503.80,1559.39029,S,04802.66793,W,1,07,1.56,1234.7,M,-11.7,M,,*4D"
    },
    {
      "t": 188658,
      "g": "$GPGGA,215504.00,1559.39015,S,04802.66791,W,1,07,1.56,1234.4,M,-11.7,M,,*4C"
    },
    {
      "t": 188852,
      "g": "$GPGGA,215504.20,1559.39003,S,04802.66796,W,1,07,1.56,1234.5,M,-11.7,M,,*4F"
    },
    {
      "t": 189057,
      "g": "$GPGGA,215504.40,1559.38954,S,04802.66798,W,1,07,1.56,1234.4,M,-11.7,M,,*4C"
    },
    {
      "t": 189255,
      "g": "$GPGGA,215504.60,1559.38925,S,04802.66791,W,1,07,1.56,1234.3,M,-11.7,M,,*46"
    },
    {
      "t": 189456,
      "g": "$GPGGA,215504.80,1559.38906,S,04802.66784,W,1,07,1.56,1234.1,M,-11.7,M,,*4F"
    },
    {
      "t": 189655,
      "g": "$GPGGA,215505.00,1559.38892,S,04802.66788,W,1,08,1.02,1234.1,M,-11.7,M,,*48"
    },
    {
      "t": 189852,
      "g": "$GPGGA,215505.20,1559.38882,S,04802.66802,W,1,08,1.02,1234.0,M,-11.7,M,,*47"
    },
    {
      "t": 190054,
      "g": "$GPGGA,215505.40,1559.38852,S,04802.66804,W,1,08,1.02,1234.0,M,-11.7,M,,*4A"
    },
    {
      "t": 190258,
      "g": "$GPGGA,215505.60,1559.38837,S,04802.66816,W,1,08,1.02,1234.0,M,-11.7,M,,*48"
    },
    {
      "t": 190455,
      "g": "$GPGGA,215505.80,1559.38827,S,04802.66823,W,1,08,1.02,1233.8,M,-11.7,M,,*4E"
    },
    {
      "t": 190656,
      "g": "$GPGGA,215506.00,1559.38807,S,04802.66823,W,1,08,1.02,1233.8,M,-11.7,M,,*47"
    },
    {
      "t": 190856,
      "g": "$GPGGA,215506.20,1559.38803,S,04802.66835,W,1,08,1.02,1233.7,M,-11.7,M,,*49"
    },
    {
      "t": 191057,
      "g": "$GPGGA,215506.40,1559.38781,S,04802.66847,W,1,08,1.02,1233.7,M,-11.7,M,,*4F"
    },
    {
      "t": 191252,
      "g": "$GPGGA,215506.60,1559.38773,S,04802.66856,W,1,08,1.02,1233.6,M,-11.7,M,,*41"
    },
    {
      "t": 191457,
      "g": "$GPGGA,215506.80,1559.38768,S,04802.66855,W,1,08,1.02,1233.5,M,-11.7,M,,*45"
    },
    {
      "t": 191655,
      "g": "$GPGGA,215507.00,1559.38756,S,04802.66847,W,1,08,1.02,1233.4,M,-11.7,M,,*43"
    },
    {
      "t": 191857,
      "g": "$GPGGA,215507.20,1559.38741,S,04802.66846,W,1,08,1.02,1233.2,M,-11.7,M,,*40"
    },
    {
      "t": 192055,
      "g": "$GPGGA,215507.40,1559.38722,S,04802.66851,W,1,08,1.02,1233.1,M,-11.7,M,,*46"
    },
    {
      "t": 192257,
      "g": "$GPGGA,215507.60,1559.38711,S,04802.66851,W,1,08,1.02,1232.9,M,-11.7,M,,*4D"
    },
    {
      "t": 192456,
      "g": "$GPGGA,215507.80,1559.38688,S,04802.66845,W,1,08,1.02,1232.7,M,-11.7,M,,*49"
    },
    {
      "t": 192656,
      "g": "$GPGGA,215508.00,1559.38665,S,04802.66837,W,1,08,1.02,1232.5,M,-11.7,M,,*4A"
    },
    {
      "t": 192856,
      "g": "$GPGGA,215508.20,1559.38650,S,04802.66837,W,1,08,1.02,1232.2,M,-11.7,M,,*49"
    },
    {
      "t": 193058,
      "g": "$GPGGA,215508.40,1559.38629,S,04802.66844,W,1,08,1.02,1232.2,M,-11.7,M,,*45"
    },
    {
      "t": 193257,
      "g": "$GPGGA,215508.60,1559.38606,S,04802.66839,W,1,08,1.02,1232.1,M,-11.7,M,,*43"
    },
    {
      "t": 193458,
      "g": "$GPGGA,215508.80,1559.38589,S,04802.66826,W,1,08,1.02,1231.5,M,-11.7,M,,*40"
    },
    {
      "t": 193655,
      "g": "$GPGGA,215509.00,1559.38578,S,04802.66822,W,1,08,1.02,1231.3,M,-11.7,M,,*45"
    },
    {
      "t": 193858,
      "g": "$GPGGA,215509.20,1559.38567,S,04802.66820,W,1,08,1.02,1231.2,M,-11.7,M,,*4A"
    },
    {
      "t": 194053,
      "g": "$GPGGA,215509.40,1559.38553,S,04802.66824,W,1,08,1.02,1230.9,M,-11.7,M,,*45"
    },
    {
      "t": 194259,
      "g": "$GPGGA,215509.60,1559.38519,S,04802.66817,W,1,08,1.02,1230.9,M,-11.7,M,,*49"
    },
    {
      "t": 194456,
      "g": "$GPGGA,215509.80,1559.38479,S,04802.66801,W,1,08,1.02,1230.7,M,-11.7,M,,*49"
    },
    {
      "t": 194658,
      "g": "$GPGGA,215510.00,1559.38455,S,04802.66797,W,1,08,1.02,1230.4,M,-11.7,M,,*44"
    },
    {
      "t": 194857,
      "g": "$GPGGA,215510.20,1559.38445,S,04802.66796,W,1,08,1.02,1230.2,M,-11.7,M,,*40"
    },
    {
      "t": 195058,
      "g": "$GPGGA,215510.40,1559.38431,S,04802.66797,W,1,08,1.02,1230.0,M,-11.7,M,,*46"
    },
    {
      "t": 195257,
      "g": "$GPGGA,215510.60,1559.38414,S,04802.66795,W,1,08,1.02,1229.9,M,-11.7,M,,*40"
    },
    {
      "t": 195458,
      "g": "$GPGGA,215510.80,1559.38407,S,04802.66799,W,1,08,1.02,1230.1,M,-11.7,M,,*40"
    },
    {
      "t": 195657,
      "g": "$GPGGA,215511.00,1559.38395,S,04802.66793,W,1,08,1.02,1230.3,M,-11.7,M,,*4D"
    },
    {
      "t": 195859,
      "g": "$GPGGA,215511.20,1559.38385,S,04802.66778,W,1,08,1.02,1229.9,M,-11.7,M,,*49"
    },
    {
      "t": 196056,
      "g": "$GPGGA,215511.40,1559.38377,S,04802.66771,W,1,08,1.02,1229.7,M,-11.7,M,,*45"
    },
    {
      "t": 196258,
      "g": "$GPGGA,215511.60,1559.38374,S,04802.66764,W,1,08,1.02,1229.5,M,-11.7,M,,*42"
    },
    {
      "t": 196456,
      "g": "$GPGGA,215511.80,1559.38371,S,04802.66756,W,1,08,1.02,1229.2,M,-11.7,M,,*4F"
    },
    {
      "t": 196657,
      "g": "$GPGGA,215512.00,1559.38356,S,04802.66731,W,1,08,1.02,1228.7,M,-11.7,M,,*44"
    },
    {
      "t": 196856,
      "g": "$GPGGA,215512.20,1559.38339,S,04802.66697,W,1,08,1.02,1228.1,M,-11.7,M,,*44"
    },
    {
      "t": 197058,
      "g": "$GPGGA,215512.40,1559.38328,S,04802.66661,W,1,08,1.02,1227.5,M,-11.7,M,,*40"
    },
    {
      "t": 197255,
      "g": "$GPGGA,215512.60,1559.38313,S,04802.66634,W,1,08,1.02,1227.0,M,-11.7,M,,*4F"
    },
    {
      "t": 197458,
      "g": "$GPGGA,215512.80,1559.38311,S,04802.66616,W,1,08,1.02,1226.8,M,-11.7,M,,*4A"
    },
    {
      "t": 197655,
      "g": "$GPGGA,215513.00,1559.38314,S,04802.66606,W,1,08,1.02,1226.8,M,-11.7,M,,*47"
    },
    {
      "t": 197858,
      "g": "$GPGGA,215513.20,1559.38320,S,04802.66585,W,1,08,1.02,1226.7,M,-11.7,M,,*45"
    },
    {
      "t": 198055,
      "g": "$GPGGA,215513.40,1559.38326,S,04802.66565,W,1,08,1.02,1226.5,M,-11.7,M,,*49"
    },
    {
      "t": 198257,
      "g": "$GPGGA,215513.60,1559.38316,S,04802.66531,W,1,08,1.02,1225.9,M,-11.7,M,,*46"
    },
    {
      "t": 198457,
      "g": "$GPGGA,215513.80,1559.38316,S,04802.66510,W,1,08,1.02,1225.6,M,-11.7,M,,*44"
    },
    {
      "t": 198658,
      "g": "$GPGGA,215514.00,1559.38318,S,04802.66505,W,1,08,1.02,1225.6,M,-11.7,M,,*41"
    },
    {
      "t": 198855,
      "g": "$GPGGA,215514.20,1559.38322,S,04802.66496,W,1,08,1.02,1225.5,M,-11.7,M,,*42"
    },
    {
      "t": 199059,
      "g": "$GPGGA,215514.40,1559.38328,S,04802.66483,W,1,08,1.02,1225.3,M,-11.7,M,,*4C"
    },
    {
      "t": 199255,
      "g": "$GPGGA,215514.60,1559.38330,S,04802.66464,W,1,08,1.02,1225.1,M,-11.7,M,,*4C"
    },
    {
      "t": 199455,
      "g": "$GPGGA,215514.80,1559.38321,S,04802.66451,W,1,08,1.02,1224.9,M,-11.7,M,,*4D"
    },
    {
      "t": 199656,
      "g": "$GPGGA,215515.00,1559.38325,S,04802.66447,W,1,08,1.02,1224.8,M,-11.7,M,,*46"
    },
    {
      "t": 199857,
      "g": "$GPGGA,215515.20,1559.38333,S,04802.66436,W,1,08,1.02,1224.6,M,-11.7,M,,*4B"
    },
    {
      "t": 200057,
      "g": "$GPGGA,215515.40,1559.38344,S,04802.66411,W,1,08,1.02,1224.5,M,-11.7,M,,*4B"
    },
    {
      "t": 200256,
      "g": "$GPGGA,215515.60,1559.38354,S,04802.66401,W,1,08,1.02,1224.4,M,-11.7,M,,*48"
    },
    {
      "t": 200455,
      "g": "$GPGGA,215515.80,1559.38356,S,04802.66383,W,1,08,1.02,1224.3,M,-11.7,M,,*4E"
    },
    {
      "t": 200657,
      "g": "$GPGGA,215516.00,1559.38356,S,04802.66372,W,1,08,1.02,1224.1,M,-11.7,M,,*49"
    },
    {
      "t": 200851,
      "g": "$GPGGA,215516.20,1559.38363,S,04802.66365,W,1,08,1.02,1224.0,M,-11.7,M,,*4A"
    },
    {
      "t": 201057,
      "g": "$GPGGA,215516.40,1559.38375,S,04802.66347,W,1,08,1.02,1224.1,M,-11.7,M,,*4A"
    },
    {
      "t": 201256,
      "g": "$GPGGA,215516.60,1559.38392,S,04802.66328,W,1,08,1.02,1224.7,M,-11.7,M,,*4E"
    },
    {
      "t": 201458,
      "g": "$GPGGA,215516.80,1559.38398,S,04802.66306,W,1,08,1.02,1224.7,M,-11.7,M,,*46"
    },
    {
      "t": 201656,
      "g": "$GPGGA,215517.00,1559.38393,S,04802.66287,W,1,08,1.02,1224.4,M,-11.7,M,,*4F"
    },
    {
      "t": 201857,
      "g": "$GPGGA,215517.20,1559.38397,S,04802.66279,W,1,08,1.02,1224.2,M,-11.7,M,,*4E"
    },
    {
      "t": 202058,
      "g": "$GPGGA,215517.40,1559.38401,S,04802.66260,W,1,08,1.02,1224.0,M,-11.7,M,,*4A"
    },
    {
      "t": 202255,
      "g": "$GPGGA,215517.60,1559.38411,S,04802.66244,W,1,08,1.02,1224.0,M,-11.7,M,,*4F"
    },
    {
      "t": 202456,
      "g": "$GPGGA,215517.80,1559.38423,S,04802.66221,W,1,08,1.02,1223.9,M,-11.7,M,,*4D"
    },
    {
      "t": 202659,
      "g": "$GPGGA,215518.00,1559.38418,S,04802.66210,W,1,08,1.02,1223.5,M,-11.7,M,,*4C"
    },
    {
      "t": 202858,
      "g": "$GPGGA,215518.20,1559.38422,S,04802.66204,W,1,08,1.02,1223.4,M,-11.7,M,,*43"
    },
    {
      "t": 203058,
      "g": "$GPGGA,215518.40,1559.38423,S,04802.66191,W,1,08,1.02,1223.1,M,-11.7,M,,*4E"
    },
    {
      "t": 203257,
      "g": "$GPGGA,215518.60,1559.38434,S,04802.66178,W,1,08,1.02,1223.2,M,-11.7,M,,*4E"
    },
    {
      "t": 203458,
      "g": "$GPGGA,215518.80,1559.38444,S,04802.66160,W,1,08,1.02,1223.1,M,-11.7,M,,*4D"
    },
    {
      "t": 203652,
      "g": "$GPGGA,215519.00,1559.38453,S,04802.66150,W,1,08,1.02,1223.1,M,-11.7,M,,*41"
    },
    {
      "t": 203855,
      "g": "$GPGGA,215519.20,1559.38451,S,04802.66138,W,1,07,1.56,1222.7,M,-11.7,M,,*46"
    },
    {
      "t": 204051,
      "g": "$GPGGA,215519.40,1559.38455,S,04802.66132,W,1,07,1.56,1222.5,M,-11.7,M,,*4C"
    },
    {
      "t": 204257,
      "g": "$GPGGA,215519.60,1559.38466,S,04802.66116,W,1,08,1.02,1222.3,M,-11.7,M,,*40"
    },
    {
      "t": 204454,
      "g": "$GPGGA,215519.80,1559.38481,S,04802.66102,W,1,08,1.02,1222.2,M,-11.7,M,,*43"
    },
    {
      "t": 204658,
      "g": "$GPGGA,215520.00,1559.38493,S,04802.66092,W,1,08,1.02,1222.3,M,-11.7,M,,*4B"
    },
    {
      "t": 204855,
      "g": "$GPGGA,215520.20,1559.38498,S,04802.66080,W,1,08,1.02,1222.0,M,-11.7,M,,*42"
    },
    {
      "t": 205055,
      "g": "$GPGGA,215520.40,1559.38518,S,04802.66070,W,1,08,1.02,1221.9,M,-11.7,M,,*48"
    },
    {
      "t": 205256,
      "g": "$GPGGA,215520.60,1559.38544,S,04802.66067,W,1,08,1.02,1221.8,M,-11.7,M,,*44"
    },
    {
      "t": 205456,
      "g": "$GPGGA,215520.80,1559.38573,S,04802.66062,W,1,08,1.02,1221.9,M,-11.7,M,,*4A"
    },
    {
      "t": 205656,
      "g": "$GPGGA,215521.00,1559.38585,S,04802.66052,W,1,08,1.02,1221.9,M,-11.7,M,,*49"
    },
    {
      "t": 205857,
      "g": "$GPGGA,215521.20,1559.38599,S,04802.66044,W,1,08,1.02,1221.7,M,-11.7,M,,*4F"
    },
    {
      "t": 206054,
      "g": "$GPGGA,215521.40,1559.38596,S,04802.66043,W,1,08,1.02,1221.5,M,-11.7,M,,*43"
    },
    {
      "t": 206257,
      "g": "$GPGGA,215521.60,1559.38598,S,04802.66038,W,1,08,1.02,1221.4,M,-11.7,M,,*42"
    },
    {
      "t": 206450,
      "g": "$GPGGA,215521.80,1559.38614,S,04802.66029,W,1,08,1.02,1221.3,M,-11.7,M,,*4C"
    },
    {
      "t": 206658,
      "g": "$GPGGA,215522.00,1559.38628,S,04802.66021,W,1,08,1.02,1221.2,M,-11.7,M,,*41"
    },
    {
      "t": 206855,
      "g": "$GPGGA,215522.20,1559.38632,S,04802.66021,W,1,08,1.02,1221.1,M,-11.7,M,,*4B"
    },
    {
      "t": 207055,
      "g": "$GPGGA,215522.40,1559.38645,S,04802.66008,W,1,08,1.02,1221.5,M,-11.7,M,,*42"
    },
    {
      "t": 207255,
      "g": "$GPGGA,215522.60,1559.38632,S,04802.65989,W,1,08,1.02,1221.7,M,-11.7,M,,*41"
    },
    {
      "t": 207456,
      "g": "$GPGGA,215522.80,1559.38625,S,04802.65983,W,1,08,1.02,1221.6,M,-11.7,M,,*42"
    },
    {
      "t": 207654,
      "g": "$GPGGA,215523.00,1559.38631,S,04802.65977,W,1,08,1.02,1221.6,M,-11.7,M,,*45"
    },
    {
      "t": 207854,
      "g": "$GPGGA,215523.20,1559.38638,S,04802.65974,W,1,08,1.02,1221.6,M,-11.7,M,,*4D"
    },
    {
      "t": 208054,
      "g": "$GPGGA,215523.40,1559.38662,S,04802.65976,W,1,08,1.02,1221.7,M,-11.7,M,,*47"
    },
    {
      "t": 208256,
      "g": "$GPGGA,215523.60,1559.38661,S,04802.65973,W,1,08,1.02,1221.6,M,-11.7,M,,*42"
    }
  ]
}
