{
  "records": [
    {
      "t": 255656,
      "g": "$GPGGA,215611.00,1559.39153,S,04802.66657,W,1,08,1.02,1231.9,M,-11.7,M,,*45"
    },
    {
      "t": 255857,
      "g": "$GPGGA,215611.20,1559.39149,S,04802.66671,W,1,08,1.02,1231.9,M,-11.7,M,,*48"
    },
    {
      "t": 256052,
      "g": "$GPGGA,215611.40,1559.39134,S,04802.66674,W,1,08,1.02,1231.8,M,-11.7,M,,*40"
    },
    {
      "t": 256257,
      "g": "$GPGGA,215611.60,1559.39085,S,04802.66679,W,1,08,1.02,1232.3,M,-11.7,M,,*4C"
    },
    {
      "t": 256455,
      "g": "$GPGGA,215611.80,1559.39060,S,04802.66690,W,1,08,1.02,1232.0,M,-11.7,M,,*4D"
    },
    {
      "t": 256656,
      "g": "$GPGGA,215612.00,1559.39019,S,04802.66699,W,1,08,1.02,1231.8,M,-11.7,M,,*4A"
    },
    {
      "t": 256855,
      "g": "$GPGGA,215612.20,1559.38969,S,04802.66695,W,1,08,1.02,1231.7,M,-11.7,M,,*44"
    },
    {
      "t": 257058,
      "g": "$GPGGA,215612.40,1559.38933,S,04802.66704,W,1,08,1.02,1231.5,M,-11.7,M,,*46"
    },
    {
      "t": 257256,
      "g": "$GPGGA,215612.60,1559.38875,S,04802.66716,W,1,08,1.02,1231.2,M,-11.7,M,,*43"
    },
    {
      "t": 257455,
      "g": "$GPGGA,215612.80,1559.38800,S,04802.66746,W,1,08,1.02,1231.0,M,-11.7,M,,*48"
    },
    {
      "t": 257655,
      "g": "$GPGGA,215613.00,1559.38742,S,04802.66747,W,1,08,1.02,1231.1,M,-11.7,M,,*48"
    },
    {
      "t": 257858,
      "g": "$GPGGA,215613.20,1559.38680,S,04802.66758,W,1,08,1.02,1231.1,M,-11.7,M,,*4B"
    },
    {
      "t": 258056,
      "g": "$GPGGA,215613.40,1559.38628,S,04802.66775,W,1,08,1.02,1231.4,M,-11.7,M,,*45"
    },
    {
      "t": 258257,
      "g": "$GPGGA,215613.60,1559.38589,S,04802.66778,W,1,08,1.02,1231.5,M,-11.7,M,,*43"
    },
    {
      "t": 258456,
      "g": "$GPGGA,215613.80,1559.38541,S,04802.66792,W,1,08,1.02,1231.5,M,-11.7,M,,*4D"
    },
    {
      "t": 258659,
      "g": "$GPGGA,215614.00,1559.38514,S,04802.66818,W,1,08,1.02,1231.7,M,-11.7,M,,*4D"
    },
    {
      "t": 258851,
      "g": "$GPGGA,215614.20,1559.38483,S,04802.66842,W,1,08,1.02,1231.6,M,-11.7,M,,*4E"
    },
    {
      "t": 259058,
      "g": "$GPGGA,215614.40,1559.38441,S,04802.66865,W,1,08,1.02,1231.6,M,-11.7,M,,*43"
    },
    {
      "t": 259255,
      "g": "$GPGGA,215614.60,1559.38384,S,04802.66876,W,1,08,1.02,1231.4,M,-11.7,M,,*4F"
    },
    {
      "t": 259459,
      "g": "$GPGGA,215614.80,1559.38361,S,04802.66880,W,1,08,1.02,1231.5,M,-11.7,M,,*42"
    },
    {
      "t": 259655,
      "g": "$GPGGA,215615.00,1559.38351,S,04802.66888,W,1,08,1.02,1231.5,M,-11.7,M,,*40"
    },
    {
      "t": 259856,
      "g": "$GPGGA,215615.20,1559.38345,S,04802.66893,W,1,08,1.02,1231.3,M,-11.7,M,,*4B"
    },
    {
      "t": 260056,
      "g": "$GPGGA,215615.40,1559.38345,S,04802.66862,W,1,08,1.02,1230.7,M,-11.7,M,,*46"
    },
    {
      "t": 260253,
      "g": "$GPGGA,215615.60,1559.38347,S,04802.66836,W,1,08,1.02,1230.4,M,-11.7,M,,*44"
    },
    {
      "t": 260455,
      "g": "$GPGGA,215615.80,1559.38335,S,04802.66791,W,1,08,1.02,1229.5,M,-11.7,M,,*44"
    },
    {
      "t": 260659,
      "g": "$GPGGA,215616.00,1559.38330,S,04802.66730,W,1,08,1.02,1228.6,M,-11.7,M,,*43"
    },
    {
      "t": 260856,
      "g": "$GPGGA,215616.20,1559.38348,S,04802.66697,W,1,08,1.02,1228.3,M,-11.7,M,,*47"
    },
    {
      "t": 261058,
      "g": "$GPGGA,215616.40,1559.38370,S,04802.66669,W,1,08,1.02,1228.0,M,-11.7,M,,*48"
    },
    {
      "t": 261257,
      "g": "$GPGGA,215616.60,1559.38379,S,04802.66628,W,1,08,1.02,1227.4,M,-11.7,M,,*4D"
    },
    {
      "t": 261458,
      "g": "$GPGGA,215616.80,1559.38397,S,04802.66587,W,1,08,1.02,1227.0,M,-11.7,M,,*41"
    },
    {
      "t": 261654,
      "g": "$GPGGA,215617.00,1559.38426,S,04802.66549,W,1,08,1.02,1226.9,M,-11.7,M,,*4F"
    },
    {
      "t": 261857,
      "g": "$GPGGA,215617.20,1559.38457,S,04802.66516,W,1,08,1.02,1226.8,M,-11.7,M,,*40"
    },
    {
      "t": 262057,
      "g": "$GPGGA,215617.40,1559.38478,S,04802.66475,W,1,08,1.02,1226.4,M,-11.7,M,,*43"
    },
    {
      "t": 262259,
      "g": "$GPGGA,215617.60,1559.38487,S,04802.66441,W,1,08,1.02,1226.2,M,-11.7,M,,*40"
    },
    {
      "t": 262456,
      "g": "$GPGGA,215617.80,1559.38521,S,04802.66397,W,1,08,1.02,1226.7,M,-11.7,M,,*4A"
    },
    {
      "t": 262659,
      "g": "$GPGGA,215618.00,1559.38529,S,04802.66353,W,1,08,1.02,1226.2,M,-11.7,M,,*48"
    },
    {
      "t": 262857,
      "g": "$GPGGA,215618.20,1559.38545,S,04802.66310,W,1,08,1.02,1225.8,M,-11.7,M,,*4E"
    },
    {
      "t": 263055,
      "g": "$GPGGA,215618.40,1559.38559,S,04802.66285,W,1,08,1.02,1225.3,M,-11.7,M,,*43"
    },
    {
      "t": 263256,
      "g": "$GPGGA,215618.60,1559.38579,S,04802.66239,W,1,08,1.02,1224.6,M,-11.7,M,,*40"
    },
    {
      "t": 263458,
      "g": "$GPGGA,215618.80,1559.38596,S,04802.66212,W,1,08,1.02,1224.5,M,-11.7,M,,*45"
    },
    {
      "t": 263658,
      "g": "$GPGGA,215619.00,1559.38603,S,04802.66167,W,1,08,1.02,1223.9,M,-11.7,M,,*49"
    },
    {
      "t": 263857,
      "g": "$GPGGA,215619.20,1559.38611,S,04802.66131,W,1,08,1.02,1223.7,M,-11.7,M,,*45"
    },
    {
      "t": 264054,
      "g": "$GPGGA,215619.40,1559.38630,S,04802.66090,W,1,08,1.02,1223.7,M,-11.7,M,,*4A"
    },
    {
      "t": 264257,
      "g": "$GPGGA,215619.60,1559.38651,S,04802.66070,W,1,08,1.02,1223.7,M,-11.7,M,,*41"
    },
    {
      "t": 264452,
      "g": "$GPGGA,215619.80,1559.38659,S,04802.66048,W,1,08,1.02,1223.4,M,-11.7,M,,*4F"
    },
    {
      "t": 264657,
      "g": "$GPGGA,215620.00,1559.38674,S,04802.66029,W,1,08,1.02,1223.5,M,-11.7,M,,*44"
    },
    {
      "t": 264856,
      "g": "$GPGGA,215620.20,1559.38675,S,04802.66015,W,1,08,1.02,1223.1,M,-11.7,M,,*4C"
    }
  ]
}
