{
  "records": [
    {
      "t": 782653,
      "g": "$GPGGA,220458.00,1559.39471,S,04802.66174,W,1,08,0.96,1231.5,M,-11.7,M,,*4F"
    },
    {
      "t": 782853,
      "g": "$GPGGA,220458.20,1559.39472,S,04802.66170,W,1,08,0.96,1231.4,M,-11.7,M,,*4B"
    },
    {
      "t": 783054,
      "g": "$GPGGA,220458.40,1559.39475,S,04802.66171,W,1,08,0.96,1231.3,M,-11.7,M,,*4C"
    },
    {
      "t": 783246,
      "g": "$GPGGA,220458.60,1559.39475,S,04802.66169,W,1,08,0.96,1231.4,M,-11.7,M,,*40"
    },
    {
      "t": 783454,
      "g": "$GPGGA,220458.80,1559.39480,S,04802.66166,W,1,08,0.96,1231.2,M,-11.7,M,,*4D"
    },
    {
      "t": 783652,
      "g": "$GPGGA,220459.00,1559.39483,S,04802.66167,W,1,08,0.96,1231.1,M,-11.7,M,,*45"
    },
    {
      "t": 783853,
      "g": "$GPGGA,220459.20,1559.39485,S,04802.66168,W,1,08,0.96,1231.0,M,-11.7,M,,*4F"
    },
    {
      "t": 784051,
      "g": "$GPGGA,220459.40,1559.39487,S,04802.66169,W,1,08,0.96,1230.8,M,-11.7,M,,*43"
    },
    {
      "t": 784252,
      "g": "$GPGGA,220459.60,1559.39492,S,04802.66172,W,1,08,0.96,1230.6,M,-11.7,M,,*41"
    },
    {
      "t": 784451,
      "g": "$GPGGA,220459.80,1559.39490,S,04802.66171,W,1,08,0.96,1230.7,M,-11.7,M,,*4F"
    },
    {
      "t": 784648,
      "g": "$GPGGA,220500.00,1559.39491,S,04802.66174,W,1,08,0.96,1230.4,M,-11.7,M,,*4D"
    },
    {
      "t": 784853,
      "g": "$GPGGA,220500.20,1559.39488,S,04802.66174,W,1,08,0.96,1230.5,M,-11.7,M,,*46"
    },
    {
      "t": 785053,
      "g": "$GPGGA,220500.40,1559.39495,S,04802.66177,W,1,08,0.96,1230.3,M,-11.7,M,,*49"
    },
    {
      "t": 785249,
      "g": "$GPGGA,220500.60,1559.39502,S,04802.66182,W,1,08,0.96,1230.3,M,-11.7,M,,*4E"
    },
    {
      "t": 785453,
      "g": "$GPGGA,220500.80,1559.39514,S,04802.66182,W,1,08,0.96,1230.3,M,-11.7,M,,*47"
    },
    {
      "t": 785651,
      "g": "$GPGGA,220501.00,1559.39523,S,04802.66183,W,1,08,0.96,1230.4,M,-11.7,M,,*4C"
    },
    {
      "t": 785853,
      "g": "$GPGGA,220501.20,1559.39530,S,04802.66187,W,1,08,0.96,1230.5,M,-11.7,M,,*49"
    },
    {
      "t": 786047,
      "g": "$GPGGA,220501.40,1559.39532,S,04802.66187,W,1,08,0.96,1230.4,M,-11.7,M,,*4C"
    },
    {
      "t": 786253,
      "g": "$GPGGA,220501.60,1559.39540,S,04802.66184,W,1,08,0.96,1230.5,M,-11.7,M,,*49"
    },
    {
      "t": 786452,
      "g": "$GPGGA,220501.80,1559.39549,S,04802.66180,W,1,08,0.96,1230.6,M,-11.7,M,,*49"
    },
    {
      "t": 786654,
      "g": "$GPGGA,220502.00,1559.39562,S,04802.66180,W,1,08,0.96,1230.6,M,-11.7,M,,*4B"
    },
    {
      "t": 786850,
      "g": "$GPGGA,220502.20,1559.39573,S,04802.66184,W,1,08,0.96,1230.8,M,-11.7,M,,*43"
    },
    {
      "t": 787053,
      "g": "$GPGGA,220502.40,1559.39583,S,04802.66190,W,1,08,0.96,1231.0,M,-11.7,M,,*46"
    },
    {
      "t": 787249,
      "g": "$GPGGA,220502.60,1559.39597,S,04802.66195,W,1,08,0.96,1231.1,M,-11.7,M,,*45"
    },
    {
      "t": 787450,
      "g": "$GPGGA,220502.80,1559.39606,S,04802.66204,W,1,08,0.96,1231.2,M,-11.7,M,,*48"
    },
    {
      "t": 787652,
      "g": "$GPGGA,220503.00,1559.39606,S,04802.66213,W,1,08,0.96,1231.0,M,-11.7,M,,*45"
    },
    {
      "t": 787852,
      "g": "$GPGGA,220503.20,1559.39608,S,04802.66211,W,1,07,1.00,1231.0,M,-11.7,M,,*4A"
    },
    {
      "t": 788050,
      "g": "$GPGGA,220503.40,1559.39620,S,04802.66210,W,1,07,1.00,1231.0,M,-11.7,M,,*47"
    },
    {
      "t": 788251,
      "g": "$GPGGA,220503.60,1559.39619,S,04802.66217,W,1,07,1.00,1231.2,M,-11.7,M,,*4A"
    },
    {
      "t": 788447,
      "g": "$GPGGA,220503.80,1559.39623,S,04802.66218,W,1,07,1.00,1231.2,M,-11.7,M,,*42"
    },
    {
      "t": 788653,
      "g": "$GPGGA,220504.00,1559.39629,S,04802.66223,W,1,07,1.00,1231.2,M,-11.7,M,,*4F"
    },
    {
      "t": 788846,
      "g": "$GPGGA,220504.20,1559.39633,S,04802.66226,W,1,07,1.00,1231.2,M,-11.7,M,,*43"
    },
    {
      "t": 789051,
      "g": "$GPGGA,220504.40,1559.39637,S,04802.66228,W,1,07,1.00,1231.1,M,-11.7,M,,*4C"
    },
    {
      "t": 789250,
      "g": "$GPGGA,220504.60,1559.39637,S,04802.66230,W,1,07,1.00,1231.2,M,-11.7,M,,*44"
    },
    {
      "t": 789451,
      "g": "$GPGGA,220504.80,1559.39639,S,04802.66232,W,1,07,1.00,1231.2,M,-11.7,M,,*46"
    },
    {
      "t": 789650,
      "g": "$GPGGA,220505.00,1559.39645,S,04802.66232,W,1,07,1.00,1231.3,M,-11.7,M,,*45"
    },
    {
      "t": 789852,
      "g": "$GPGGA,220505.20,1559.39649,S,04802.66233,W,1,07,1.00,1231.4,M,-11.7,M,,*4D"
    },
    {
      "t": 790050,
      "g": "$GPGGA,220505.40,1559.39653,S,04802.66233,W,1,07,1.00,1231.4,M,-11.7,M,,*40"
    },
    {
      "t": 790250,
      "g": "$GPGGA,220505.60,1559.39659,S,04802.66232,W,1,07,1.00,1231.5,M,-11.7,M,,*48"
    },
    {
      "t": 790448,
      "g": "$GPGGA,220505.80,1559.39666,S,04802.66232,W,1,07,1.00,1231.5,M,-11.7,M,,*4A"
    },
    {
      "t": 790652,
      "g": "$GPGGA,220506.00,1559.39673,S,04802.66232,W,1,07,1.00,1231.7,M,-11.7,M,,*47"
    },
    {
      "t": 790849,
      "g": "$GPGGA,220506.20,1559.39683,S,04802.66228,W,1,07,1.00,1231.8,M,-11.7,M,,*4E"
    },
    {
      "t": 791051,
      "g": "$GPGGA,220506.40,1559.39687,S,04802.66227,W,1,07,1.00,1231.8,M,-11.7,M,,*43"
    },
    {
      "t": 791247,
      "g": "$GPGGA,220506.60,1559.39691,S,04802.66227,W,1,07,1.00,1231.8,M,-11.7,M,,*46"
    },
    {
      "t": 791450,
      "g": "$GPGGA,220506.80,1559.39699,S,04802.66226,W,1,07,1.00,1231.9,M,-11.7,M,,*40"
    },
    {
      "t": 791651,
      "g": "$GPGGA,220507.00,1559.39705,S,04802.66226,W,1,07,1.00,1232.0,M,-11.7,M,,*47"
    },
    {
      "t": 791851,
      "g": "$GPGGA,220507.20,1559.39707,S,04802.66226,W,1,07,1.00,1232.0,M,-11.7,M,,*47"
    },
    {
      "t": 792047,
      "g": "$GPGGA,220507.40,1559.39713,S,04802.66227,W,1,07,1.00,1232.0,M,-11.7,M,,*45"
    },
    {
      "t": 792252,
      "g": "$GPGGA,220507.60,1559.39717,S,04802.66227,W,1,07,1.00,1232.0,M,-11.7,M,,*43"
    },
    {
      "t": 792450,
      "g": "$GPGGA,220507.80,1559.39719,S,04802.66227,W,1,07,1.00,1232.0,M,-11.7,M,,*43"
    },
    {
      "t": 792653,
      "g": "$GPGGA,220508.00,1559.39724,S,04802.66220,W,1,07,1.00,1232.0,M,-11.7,M,,*4D"
    },
    {
      "t": 792847,
      "g": "$GPGGA,220508.20,1559.39734,S,04802.66219,W,1,07,1.00,1232.1,M,-11.7,M,,*45"
    },
    {
      "t": 793052,
      "g": "$GPGGA,220508.40,1559.39745,S,04802.66219,W,1,07,1.00,1232.3,M,-11.7,M,,*47"
    },
    {
      "t": 793249,
      "g": "$GPGGA,220508.60,1559.39748,S,04802.66218,W,1,07,1.00,1232.3,M,-11.7,M,,*49"
    },
    {
      "t": 793451,
      "g": "$GPGGA,220508.80,1559.39749,S,04802.66217,W,1,07,1.00,1232.4,M,-11.7,M,,*4E"
    },
    {
      "t": 793647,
      "g": "$GPGGA,220509.00,1559.39752,S,04802.66215,W,1,07,1.00,1232.4,M,-11.7,M,,*4F"
    },
    {
      "t": 793853,
      "g": "$GPGGA,220509.20,1559.39749,S,04802.66212,W,1,08,0.96,1232.3,M,-11.7,M,,*46"
    },
    {
      "t": 794052,
      "g": "$GPGGA,220509.40,1559.39748,S,04802.66213,W,1,08,0.96,1232.3,M,-11.7,M,,*40"
    },
    {
      "t": 794250,
      "g": "$GPGGA,220509.60,1559.39760,S,04802.66212,W,1,08,0.96,1232.3,M,-11.7,M,,*49"
    },
    {
      "t": 794450,
      "g": "$GPGGA,220509.80,1559.39771,S,04802.66212,W,1,08,0.96,1232.4,M,-11.7,M,,*40"
    },
    {
      "t": 794654,
      "g": "$GPGGA,220510.00,1559.39778,S,04802.66211,W,1,08,0.96,1232.5,M,-11.7,M,,*4B"
    },
    {
      "t": 794852,
      "g": "$GPGGA,220510.20,1559.39782,S,04802.66209,W,1,08,0.96,1232.5,M,-11.7,M,,*45"
    },
    {
      "t": 795053,
      "g": "$GPGGA,220510.40,1559.39783,S,04802.66207,W,1,08,0.96,1232.5,M,-11.7,M,,*4C"
    },
    {
      "t": 795252,
      "g": "$GPGGA,220510.60,1559.39780,S,04802.66205,W,1,08,0.96,1232.4,M,-11.7,M,,*4E"
    },
    {
      "t": 795454,
      "g": "$GPGGA,220510.80,1559.39791,S,04802.66203,W,1,08,0.96,1232.6,M,-11.7,M,,*44"
    },
    {
      "t": 795647,
      "g": "$GPGGA,220511.00,1559.39796,S,04802.66202,W,1,08,0.96,1232.6,M,-11.7,M,,*4B"
    },
    {
      "t": 795853,
      "g": "$GPGGA,220511.20,1559.39799,S,04802.66200,W,1,08,0.96,1232.6,M,-11.7,M,,*44"
    },
    {
      "t": 796053,
      "g": "$GPGGA,220511.40,1559.39796,S,04802.66198,W,1,08,0.96,1232.5,M,-11.7,M,,*4C"
    },
    {
      "t": 796253,
      "g": "$GPGGA,220511.60,1559.39799,S,04802.66196,W,1,08,0.96,1232.5,M,-11.7,M,,*4F"
    },
    {
      "t": 796451,
      "g": "$GPGGA,220511.80,1559.39800,S,04802.66196,W,1,08,0.96,1232.4,M,-11.7,M,,*4F"
    },
    {
      "t": 796654,
      "g": "$GPGGA,220512.00,1559.39803,S,04802.66196,W,1,08,0.96,1232.5,M,-11.7,M,,*46"
    },
    {
      "t": 796851,
      "g": "$GPGGA,220512.20,1559.39812,S,04802.66197,W,1,08,0.96,1232.5,M,-11.7,M,,*45"
    },
    {
      "t": 797048,
      "g": "$GPGGA,220512.40,1559.39819,S,04802.66196,W,1,08,0.96,1232.7,M,-11.7,M,,*4B"
    },
    {
      "t": 797250,
      "g": "$GPGGA,220512.60,1559.39828,S,04802.66196,W,1,08,0.96,1232.8,M,-11.7,M,,*44"
    },
    {
      "t": 797453,
      "g": "$GPGGA,220512.80,1559.39840,S,04802.66196,W,1,08,0.96,1232.8,M,-11.7,M,,*44"
    },
    {
      "t": 797649,
      "g": "$GPGGA,220513.00,1559.39835,S,04802.66194,W,1,08,0.96,1232.8,M,-11.7,M,,*4D"
    },
    {
      "t": 797852,
      "g": "$GPGGA,220513.20,1559.39850,S,04802.66193,W,1,08,0.96,1232.9,M,-11.7,M,,*4A"
    },
    {
      "t": 798050,
      "g": "$GPGGA,220513.40,1559.39861,S,04802.66194,W,1,08,0.96,1233.1,M,-11.7,M,,*40"
    },
    {
      "t": 798253,
      "g": "$GPGGA,220513.60,1559.39855,S,04802.66193,W,1,08,0.96,1233.0,M,-11.7,M,,*43"
    },
    {
      "t": 798447,
      "g": "$GPGGA,220513.80,1559.39866,S,04802.66190,W,1,08,0.96,1233.1,M,-11.7,M,,*4F"
    },
    {
      "t": 798653,
      "g": "$GPGGA,220514.00,1559.39877,S,04802.66190,W,1,08,0.96,1233.3,M,-11.7,M,,*42"
    },
    {
      "t": 798850,
      "g": "$GPGGA,220514.20,1559.39886,S,04802.66191,W,1,08,0.96,1233.3,M,-11.7,M,,*4F"
    },
    {
      "t": 799053,
      "g": "$GPGGA,220514.40,1559.39896,S,04802.66189,W,1,08,0.96,1233.4,M,-11.7,M,,*46"
    },
    {
      "t": 799251,
      "g": "$GPGGA,220514.60,1559.39903,S,04802.66189,W,1,08,0.96,1233.5,M,-11.7,M,,*48"
    },
    {
      "t": 799453,
      "g": "$GPGGA,220514.80,1559.39906,S,04802.66188,W,1,08,0.96,1233.6,M,-11.7,M,,*41"
    },
    {
      "t": 799651,
      "g": "$GPGGA,220515.00,1559.39914,S,04802.66187,W,1,08,0.96,1233.6,M,-11.7,M,,*44"
    },
    {
      "t": 799848,
      "g": "$GPGGA,220515.20,1559.39920,S,04802.66187,W,1,08,0.96,1233.7,M,-11.7,M,,*40"
    },
    {
      "t": 800049,
      "g": "$GPGGA,220515.40,1559.39924,S,04802.66186,W,1,08,0.96,1233.8,M,-11.7,M,,*4C"
    },
    {
      "t": 800252,
      "g": "$GPGGA,220515.60,1559.39923,S,04802.66186,W,1,08,0.96,1233.8,M,-11.7,M,,*49"
    },
    {
      "t": 800451,
      "g": "$GPGGA,220515.80,1559.39919,S,04802.66187,W,1,08,0.96,1233.7,M,-11.7,M,,*40"
    },
    {
      "t": 800653,
      "g": "$GPGGA,220516.00,1559.39913,S,04802.66188,W,1,08,0.96,1233.7,M,-11.7,M,,*4E"
    },
    {
      "t": 800847,
      "g": "$GPGGA,220516.20,1559.39913,S,04802.66188,W,1,08,0.96,1233.7,M,-11.7,M,,*4C"
    },
    {
      "t": 801053,
      "g": "$GPGGA,220516.40,1559.39917,S,04802.66183,W,1,08,0.96,1233.6,M,-11.7,M,,*44"
    },
    {
      "t": 801246,
      "g": "$GPGGA,220516.60,1559.39917,S,04802.66182,W,1,08,0.96,1233.5,M,-11.7,M,,*44"
    },
    {
      "t": 801453,
      "g": "$GPGGA,220516.80,1559.39919,S,04802.66182,W,1,08,0.96,1233.5,M,-11.7,M,,*44"
    },
    {
      "t": 801651,
      "g": "$GPGGA,220517.00,1559.39924,S,04802.66180,W,1,08,0.96,1233.5,M,-11.7,M,,*41"
    },
    {
      "t": 801852,
      "g": "$GPGGA,220517.20,1559.39925,S,04802.66178,W,1,08,0.96,1233.5,M,-11.7,M,,*45"
    },
    {
      "t": 802051,
      "g": "$GPGGA,220517.40,1559.39929,S,04802.66176,W,1,08,0.96,1233.6,M,-11.7,M,,*42"
    },
    {
      "t": 802252,
      "g": "$GPGGA,220517.60,1559.39934,S,04802.66176,W,1,08,0.96,1233.7,M,-11.7,M,,*4D"
    },
    {
      "t": 802449,
      "g": "$GPGGA,220517.80,1559.39934,S,04802.66178,W,1,08,0.96,1233.6,M,-11.7,M,,*4C"
    },
    {
      "t": 802651,
      "g": "$GPGGA,220518.00,1559.39947,S,04802.66179,W,1,08,0.96,1233.8,M,-11.7,M,,*40"
    },
    {
      "t": 802846,
      "g": "$GPGGA,220518.20,1559.39947,S,04802.66185,W,1,08,1.00,1233.9,M,-11.7,M,,*4E"
    },
    {
      "t": 803052,
      "g": "$GPGGA,220518.40,1559.39957,S,04802.66189,W,1,08,1.00,1234.0,M,-11.7,M,,*4B"
    },
    {
      "t": 803246,
      "g": "$GPGGA,220518.60,1559.39957,S,04802.66191,W,1,08,1.00,1234.0,M,-11.7,M,,*40"
    },
    {
      "t": 803451,
      "g": "$GPGGA,220518.80,1559.39950,S,04802.66190,W,1,08,1.00,1234.0,M,-11.7,M,,*48"
    },
    {
      "t": 803649,
      "g": "$GPGGA,220519.00,1559.39944,S,04802.66187,W,1,08,1.00,1233.8,M,-11.7,M,,*4D"
    },
    {
      "t": 803850,
      "g": "$GPGGA,220519.20,1559.39931,S,04802.66188,W,1,08,1.00,1233.7,M,-11.7,M,,*4D"
    },
    {
      "t": 804045,
      "g": "$GPGGA,220519.40,1559.39931,S,04802.66191,W,1,07,1.00,1233.7,M,-11.7,M,,*4C"
    },
    {
      "t": 804249,
      "g": "$GPGGA,220519.60,1559.39935,S,04802.66194,W,1,07,1.00,1233.8,M,-11.7,M,,*40"
    },
    {
      "t": 804446,
      "g": "$GPGGA,220519.80,1559.39935,S,04802.66196,W,1,07,1.00,1233.8,M,-11.7,M,,*4C"
    },
    {
      "t": 804651,
      "g": "$GPGGA,220520.00,1559.39927,S,04802.66195,W,1,07,1.00,1233.8,M,-11.7,M,,*4E"
    },
    {
      "t": 804846,
      "g": "$GPGGA,220520.20,1559.39928,S,04802.66195,W,1,07,1.00,1233.8,M,-11.7,M,,*43"
    },
    {
      "t": 805050,
      "g": "$GPGGA,220520.40,1559.39935,S,04802.66195,W,1,07,1.00,1233.9,M,-11.7,M,,*48"
    },
    {
      "t": 805247,
      "g": "$GPGGA,220520.60,1559.39937,S,04802.66196,W,1,07,1.00,1234.0,M,-11.7,M,,*45"
    },
    {
      "t": 805448,
      "g": "$GPGGA,220520.80,1559.39932,S,04802.66196,W,1,07,1.00,1233.9,M,-11.7,M,,*40"
    },
    {
      "t": 805647,
      "g": "$GPGGA,220521.00,1559.39928,S,04802.66196,W,1,07,1.00,1233.9,M,-11.7,M,,*42"
    },
    {
      "t": 805847,
      "g": "$GPGGA,220521.20,1559.39927,S,04802.66197,W,1,07,1.00,1233.9,M,-11.7,M,,*4E"
    },
    {
      "t": 806046,
      "g": "$GPGGA,220521.40,1559.39923,S,04802.66200,W,1,07,1.00,1233.9,M,-11.7,M,,*41"
    },
    {
      "t": 806249,
      "g": "$GPGGA,220521.60,1559.39921,S,04802.66200,W,1,07,1.00,1233.8,M,-11.7,M,,*40"
    },
    {
      "t": 806446,
      "g": "$GPGGA,220521.80,1559.39917,S,04802.66197,W,1,07,1.00,1233.7,M,-11.7,M,,*49"
    },
    {
      "t": 806646,
      "g": "$GPGGA,220522.00,1559.39914,S,04802.66195,W,1,07,1.00,1233.7,M,-11.7,M,,*43"
    },
    {
      "t": 806847,
      "g": "$GPGGA,220522.20,1559.39915,S,04802.66196,W,1,07,1.00,1233.7,M,-11.7,M,,*43"
    },
    {
      "t": 807049,
      "g": "$GPGGA,220522.40,1559.39913,S,04802.66197,W,1,07,1.00,1233.7,M,-11.7,M,,*42"
    },
    {
      "t": 807246,
      "g": "$GPGGA,220522.60,1559.39918,S,04802.66197,W,1,07,1.00,1233.8,M,-11.7,M,,*44"
    },
    {
      "t": 807447,
      "g": "$GPGGA,220522.80,1559.39922,S,04802.66198,W,1,07,1.00,1233.8,M,-11.7,M,,*4C"
    },
    {
      "t": 807646,
      "g": "$GPGGA,220523.00,1559.39923,S,04802.66199,W,1,07,1.00,1233.8,M,-11.7,M,,*45"
    },
    {
      "t": 807847,
      "g": "$GPGGA,220523.20,1559.39924,S,04802.66197,W,1,07,1.00,1233.8,M,-11.7,M,,*4E"
    },
    {
      "t": 808044,
      "g": "$GPGGA,220523.40,1559.39923,S,04802.66197,W,1,07,1.00,1233.9,M,-11.7,M,,*4E"
    },
    {
      "t": 808247,
      "g": "$GPGGA,220523.60,1559.39924,S,04802.66197,W,1,07,1.00,1233.9,M,-11.7,M,,*4B"
    },
    {
      "t": 808446,
      "g": "$GPGGA,220523.80,1559.39920,S,04802.66200,W,1,07,1.00,1234.0,M,-11.7,M,,*42"
    },
    {
      "t": 808647,
      "g": "$GPGGA,220524.00,1559.39918,S,04802.66202,W,1,07,1.00,1234.1,M,-11.7,M,,*45"
    },
    {
      "t": 808845,
      "g": "$GPGGA,220524.20,1559.39918,S,04802.66203,W,1,07,1.00,1234.2,M,-11.7,M,,*45"
    },
    {
      "t": 809047,
      "g": "$GPGGA,220524.40,1559.39919,S,04802.66202,W,1,07,1.00,1234.3,M,-11.7,M,,*42"
    },
    {
      "t": 809248,
      "g": "$GPGGA,220524.60,1559.39918,S,04802.66198,W,1,07,1.00,1234.4,M,-11.7,M,,*46"
    },
    {
      "t": 809445,
      "g": "$GPGGA,220524.80,1559.39918,S,04802.66194,W,1,07,1.00,1234.3,M,-11.7,M,,*43"
    },
    {
      "t": 809645,
      "g": "$GPGGA,220525.00,1559.39917,S,04802.66195,W,1,07,1.00,1234.4,M,-11.7,M,,*43"
    },
    {
      "t": 809849,
      "g": "$GPGGA,220525.20,1559.39918,S,04802.66195,W,1,07,1.00,1234.4,M,-11.7,M,,*4E"
    },
    {
      "t": 810046,
      "g": "$GPGGA,220525.40,1559.39926,S,04802.66200,W,1,07,1.00,1234.4,M,-11.7,M,,*4A"
    },
    {
      "t": 810249,
      "g": "$GPGGA,220525.60,1559.39935,S,04802.66205,W,1,07,1.00,1234.5,M,-11.7,M,,*4E"
    },
    {
      "t": 810447,
      "g": "$GPGGA,220525.80,1559.39933,S,04802.66218,W,1,07,1.00,1234.6,M,-11.7,M,,*49"
    },
    {
      "t": 810649,
      "g": "$GPGGA,220526.00,1559.39935,S,04802.66217,W,1,07,1.00,1234.6,M,-11.7,M,,*4B"
    },
    {
      "t": 810844,
      "g": "$GPGGA,220526.20,1559.39939,S,04802.66222,W,1,07,1.00,1234.7,M,-11.7,M,,*42"
    },
    {
      "t": 811048,
      "g": "$GPGGA,220526.40,1559.39944,S,04802.66229,W,1,07,1.00,1234.8,M,-11.7,M,,*4A"
    },
    {
      "t": 811245,
      "g": "$GPGGA,220526.60,1559.39951,S,04802.66233,W,1,07,1.00,1234.9,M,-11.7,M,,*46"
    },
    {
      "t": 811451,
      "g": "$GPGGA,220526.80,1559.39957,S,04802.66240,W,1,07,1.00,1234.9,M,-11.7,M,,*4A"
    },
    {
      "t": 811645,
      "g": "$GPGGA,220527.00,1559.39968,S,04802.66243,W,1,07,1.00,1235.1,M,-11.7,M,,*45"
    },
    {
      "t": 811850,
      "g": "$GPGGA,220527.20,1559.39986,S,04802.66245,W,1,07,1.00,1235.3,M,-11.7,M,,*43"
    },
    {
      "t": 812045,
      "g": "$GPGGA,220527.40,1559.39995,S,04802.66249,W,1,07,1.00,1235.4,M,-11.7,M,,*4C"
    },
    {
      "t": 812246,
      "g": "$GPGGA,220527.60,1559.39994,S,04802.66252,W,1,07,1.00,1235.4,M,-11.7,M,,*45"
    },
    {
      "t": 812446,
      "g": "$GPGGA,220527.80,1559.39995,S,04802.66252,W,1,07,1.00,1235.4,M,-11.7,M,,*4A"
    },
    {
      "t": 812650,
      "g": "$GPGGA,220528.00,1559.39999,S,04802.66254,W,1,07,1.00,1235.5,M,-11.7,M,,*46"
    },
    {
      "t": 812847,
      "g": "$GPGGA,220528.20,1559.40002,S,04802.66261,W,1,07,1.00,1235.5,M,-11.7,M,,*47"
    },
    {
      "t": 813050,
      "g": "$GPGGA,220528.40,1559.40011,S,04802.66257,W,1,07,1.00,1235.5,M,-11.7,M,,*46"
    },
    {
      "t": 813246,
      "g": "$GPGGA,220528.60,1559.40012,S,04802.66257,W,1,07,1.00,1235.4,M,-11.7,M,,*46"
    },
    {
      "t": 813450,
      "g": "$GPGGA,220528.80,1559.40019,S,04802.66260,W,1,07,1.00,1235.5,M,-11.7,M,,*46"
    },
    {
      "t": 813644,
      "g": "$GPGGA,220529.00,1559.40023,S,04802.66261,W,1,07,1.00,1235.5,M,-11.7,M,,*47"
    },
    {
      "t": 813849,
      "g": "$GPGGA,220529.20,1559.40031,S,04802.66255,W,1,07,1.00,1235.5,M,-11.7,M,,*41"
    },
    {
      "t": 814046,
      "g": "$GPGGA,220529.40,1559.40034,S,04802.66253,W,1,07,1.00,1235.5,M,-11.7,M,,*44"
    },
    {
      "t": 814247,
      "g": "$GPGGA,220529.60,1559.40034,S,04802.66258,W,1,07,1.00,1235.5,M,-11.7,M,,*4D"
    },
    {
      "t": 814446,
      "g": "$GPGGA,220529.80,1559.40033,S,04802.66259,W,1,07,1.00,1235.4,M,-11.7,M,,*44"
    },
    {
      "t": 814647,
      "g": "$GPGGA,220530.00,1559.40028,S,04802.66264,W,1,07,1.00,1235.5,M,-11.7,M,,*41"
    },
    {
      "t": 814847,
      "g": "$GPGGA,220530.20,1559.40044,S,04802.66267,W,1,07,1.00,1235.5,M,-11.7,M,,*4A"
    },
    {
      "t": 815045,
      "g": "$GPGGA,220530.40,1559.40057,S,04802.66280,W,1,07,1.00,1235.5,M,-11.7,M,,*47"
    },
    {
      "t": 815245,
      "g": "$GPGGA,220530.60,1559.40060,S,04802.66291,W,1,07,1.00,1235.7,M,-11.7,M,,*43"
    },
    {
      "t": 815447,
      "g": "$GPGGA,220530.80,1559.40063,S,04802.66301,W,1,07,1.00,1235.8,M,-11.7,M,,*49"
    },
    {
      "t": 815646,
      "g": "$GPGGA,220531.00,1559.40071,S,04802.66308,W,1,07,1.00,1235.9,M,-11.7,M,,*4B"
    },
    {
      "t": 815847,
      "g": "$GPGGA,220531.20,1559.40068,S,04802.66317,W,1,07,1.00,1235.8,M,-11.7,M,,*4E"
    },
    {
      "t": 816046,
      "g": "$GPGGA,220531.40,1559.40066,S,04802.66324,W,1,07,1.00,1235.8,M,-11.7,M,,*46"
    },
    {
      "t": 816246,
      "g": "$GPGGA,220531.60,1559.40064,S,04802.66333,W,1,07,1.00,1235.8,M,-11.7,M,,*40"
    },
    {
      "t": 816443,
      "g": "$GPGGA,220531.80,1559.40065,S,04802.66333,W,1,07,1.00,1235.9,M,-11.7,M,,*4E"
    },
    {
      "t": 816647,
      "g": "$GPGGA,220532.00,1559.40062,S,04802.66334,W,1,07,1.00,1236.0,M,-11.7,M,,*4F"
    },
    {
      "t": 816845,
      "g": "$GPGGA,220532.20,1559.40055,S,04802.66336,W,1,07,1.00,1236.0,M,-11.7,M,,*4B"
    },
    {
      "t": 817049,
      "g": "$GPGGA,220532.40,1559.40058,S,04802.66336,W,1,07,1.00,1236.0,M,-11.7,M,,*40"
    },
    {
      "t": 817247,
      "g": "$GPGGA,220532.60,1559.40055,S,04802.66339,W,1,07,1.00,1236.1,M,-11.7,M,,*41"
    },
    {
      "t": 817448,
      "g": "$GPGGA,220532.80,1559.40049,S,04802.66339,W,1,07,1.00,1236.1,M,-11.7,M,,*42"
    },
    {
      "t": 817646,
      "g": "$GPGGA,220533.00,1559.40043,S,04802.66336,W,1,07,1.00,1236.1,M,-11.7,M,,*4E"
    },
    {
      "t": 817846,
      "g": "$GPGGA,220533.20,1559.40041,S,04802.66337,W,1,07,1.00,1236.0,M,-11.7,M,,*4E"
    },
    {
      "t": 818049,
      "g": "$GPGGA,220533.40,1559.40039,S,04802.66337,W,1,07,1.00,1236.0,M,-11.7,M,,*47"
    },
    {
      "t": 818249,
      "g": "$GPGGA,220533.60,1559.40038,S,04802.66336,W,1,07,1.00,1235.8,M,-11.7,M,,*4E"
    },
    {
      "t": 818445,
      "g": "$GPGGA,220533.80,1559.40039,S,04802.66334,W,1,07,1.00,1235.7,M,-11.7,M,,*4C"
    },
    {
      "t": 818650,
      "g": "$GPGGA,220534.00,1559.40042,S,04802.66334,W,1,07,1.00,1235.6,M,-11.7,M,,*4E"
    },
    {
      "t": 818847,
      "g": "$GPGGA,220534.20,1559.40038,S,04802.66333,W,1,07,1.00,1235.6,M,-11.7,M,,*46"
    },
    {
      "t": 819049,
      "g": "$GPGGA,220534.40,1559.40033,S,04802.66333,W,1,07,1.00,1235.6,M,-11.7,M,,*4B"
    },
    {
      "t": 819247,
      "g": "$GPGGA,220534.60,1559.40033,S,04802.66336,W,1,07,1.00,1235.6,M,-11.7,M,,*4C"
    },
    {
      "t": 819448,
      "g": "$GPGGA,220534.80,1559.40028,S,04802.66342,W,1,07,1.00,1235.7,M,-11.7,M,,*4A"
    },
    {
      "t": 819647,
      "g": "$GPGGA,220535.00,1559.40026,S,04802.66341,W,1,07,1.00,1235.6,M,-11.7,M,,*4F"
    },
    {
      "t": 819850,
      "g": "$GPGGA,220535.20,1559.40025,S,04802.66340,W,1,07,1.00,1235.5,M,-11.7,M,,*4C"
    },
    {
      "t": 820045,
      "g": "$GPGGA,220535.40,1559.40027,S,04802.66339,W,1,07,1.00,1235.4,M,-11.7,M,,*47"
    },
    {
      "t": 820249,
      "g": "$GPGGA,220535.60,1559.40023,S,04802.66347,W,1,07,1.00,1235.6,M,-11.7,M,,*4A"
    },
    {
      "t": 820444,
      "g": "$GPGGA,220535.80,1559.40020,S,04802.66356,W,1,07,1.00,1235.8,M,-11.7,M,,*49"
    },
    {
      "t": 820651,
      "g": "$GPGGA,220536.00,1559.40010,S,04802.66361,W,1,07,1.00,1235.9,M,-11.7,M,,*44"
    },
    {
      "t": 820845,
      "g": "$GPGGA,220536.20,1559.40001,S,04802.66358,W,1,07,1.00,1235.8,M,-11.7,M,,*4D"
    },
    {
      "t": 821045,
      "g": "$GPGGA,220536.40,1559.39996,S,04802.66358,W,1,06,1.86,1235.8,M,-11.7,M,,*4D"
    },
    {
      "t": 821244,
      "g": "$GPGGA,220536.60,1559.39987,S,04802.66358,W,1,06,1.86,1235.8,M,-11.7,M,,*4F"
    },
    {
      "t": 821445,
      "g": "$GPGGA,220536.80,1559.39991,S,04802.66362,W,1,06,1.86,1235.7,M,-11.7,M,,*40"
    },
    {
      "t": 821644,
      "g": "$GPGGA,220537.00,1559.39992,S,04802.66367,W,1,06,1.86,1235.8,M,-11.7,M,,*40"
    },
    {
      "t": 821844,
      "g": "$GPGGA,220537.20,1559.39998,S,04802.66371,W,1,06,1.86,1235.7,M,-11.7,M,,*40"
    },
    {
      "t": 822043,
      "g": "$GPGGA,220537.40,1559.40011,S,04802.66370,W,1,06,1.86,1235.7,M,-11.7,M,,*41"
    },
    {
      "t": 822246,
      "g": "$GPGGA,220537.60,1559.40001,S,04802.66370,W,1,06,1.86,1235.6,M,-11.7,M,,*43"
    },
    {
      "t": 822443,
      "g": "$GPGGA,220537.80,1559.39997,S,04802.66374,W,1,06,1.86,1235.6,M,-11.7,M,,*41"
    },
    {
      "t": 822646,
      "g": "$GPGGA,220538.00,1559.39986,S,04802.66372,W,1,06,1.86,1235.6,M,-11.7,M,,*40"
    },
    {
      "t": 822844,
      "g": "$GPGGA,220538.20,1559.39980,S,04802.66372,W,1,06,1.86,1235.5,M,-11.7,M,,*47"
    },
    {
      "t": 823044,
      "g": "$GPGGA,220538.40,1559.39982,S,04802.66372,W,1,06,1.86,1235.5,M,-11.7,M,,*43"
    },
    {
      "t": 823242,
      "g": "$GPGGA,220538.60,1559.39985,S,04802.66375,W,1,06,1.86,1235.5,M,-11.7,M,,*41"
    },
    {
      "t": 823445,
      "g": "$GPGGA,220538.80,1559.39990,S,04802.66375,W,1,06,1.86,1235.5,M,-11.7,M,,*4B"
    },
    {
      "t": 823644,
      "g": "$GPGGA,220539.00,1559.39991,S,04802.66376,W,1,06,1.86,1235.4,M,-11.7,M,,*41"
    },
    {
      "t": 823846,
      "g": "$GPGGA,220539.20,1559.39993,S,04802.66380,W,1,06,1.86,1235.5,M,-11.7,M,,*49"
    },
    {
      "t": 824044,
      "g": "$GPGGA,220539.40,1559.39993,S,04802.66381,W,1,06,1.86,1235.5,M,-11.7,M,,*4E"
    },
    {
      "t": 824245,
      "g": "$GPGGA,220539.60,1559.39988,S,04802.66374,W,1,06,1.86,1235.4,M,-11.7,M,,*4D"
    },
    {
      "t": 824444,
      "g": "$GPGGA,220539.80,1559.39984,S,04802.66372,W,1,06,1.86,1235.3,M,-11.7,M,,*4E"
    },
    {
      "t": 824643,
      "g": "$GPGGA,220540.00,1559.39977,S,04802.66373,W,1,06,1.86,1235.4,M,-11.7,M,,*42"
    },
    {
      "t": 824845,
      "g": "$GPGGA,220540.20,1559.39970,S,04802.66370,W,1,06,1.86,1235.3,M,-11.7,M,,*43"
    },
    {
      "t": 825045,
      "g": "$GPGGA,220540.40,1559.39967,S,04802.66368,W,1,06,1.86,1235.2,M,-11.7,M,,*4B"
    },
    {
      "t": 825244,
      "g": "$GPGGA,220540.60,1559.39966,S,04802.66374,W,1,06,1.86,1235.3,M,-11.7,M,,*44"
    },
    {
      "t": 825445,
      "g": "$GPGGA,220540.80,1559.39941,S,04802.66368,W,1,06,1.86,1235.3,M,-11.7,M,,*42"
    },
    {
      "t": 825643,
      "g": "$GPGGA,220541.00,1559.39908,S,04802.66359,W,1,06,1.86,1235.3,M,-11.7,M,,*44"
    },
    {
      "t": 825845,
      "g": "$GPGGA,220541.20,1559.39917,S,04802.66367,W,1,06,1.86,1235.3,M,-11.7,M,,*45"
    },
    {
      "t": 826041,
      "g": "$GPGGA,220541.40,1559.39914,S,04802.66375,W,1,06,1.86,1235.3,M,-11.7,M,,*43"
    },
    {
      "t": 826247,
      "g": "$GPGGA,220541.60,1559.39905,S,04802.66376,W,1,06,1.86,1235.4,M,-11.7,M,,*45"
    },
    {
      "t": 826445,
      "g": "$GPGGA,220541.80,1559.39906,S,04802.66381,W,1,06,1.86,1235.4,M,-11.7,M,,*40"
    },
    {
      "t": 826647,
      "g": "$GPGGA,220542.00,1559.39902,S,04802.66381,W,1,06,1.86,1235.4,M,-11.7,M,,*4F"
    },
    {
      "t": 826851,
      "g": "$GPGGA,220542.20,1559.39898,S,04802.66386,W,1,06,1.86,1235.5,M,-11.7,M,,*49"
    },
    {
      "t": 827046,
      "g": "$GPGGA,220542.40,1559.39881,S,04802.66387,W,1,06,1.86,1235.6,M,-11.7,M,,*45"
    },
    {
      "t": 827244,
      "g": "$GPGGA,220542.60,1559.39884,S,04802.66396,W,1,06,1.86,1235.8,M,-11.7,M,,*4C"
    },
    {
      "t": 827445,
      "g": "$GPGGA,220542.80,1559.39868,S,04802.66393,W,1,06,1.86,1235.8,M,-11.7,M,,*45"
    },
    {
      "t": 827645,
      "g": "$GPGGA,220543.00,1559.39855,S,04802.66389,W,1,06,1.86,1235.7,M,-11.7,M,,*46"
    },
    {
      "t": 827846,
      "g": "$GPGGA,220543.20,1559.39846,S,04802.66391,W,1,06,1.86,1235.8,M,-11.7,M,,*40"
    },
    {
      "t": 828047,
      "g": "$GPGGA,220543.40,1559.39851,S,04802.66401,W,1,07,1.00,1235.9,M,-11.7,M,,*40"
    },
    {
      "t": 828248,
      "g": "$GPGGA,220543.60,1559.39867,S,04802.66409,W,1,07,1.00,1236.0,M,-11.7,M,,*45"
    },
    {
      "t": 828446,
      "g": "$GPGGA,220543.80,1559.39878,S,04802.66412,W,1,07,1.00,1236.0,M,-11.7,M,,*4F"
    },
    {
      "t": 828649,
      "g": "$GPGGA,220544.00,1559.39887,S,04802.66423,W,1,07,1.00,1236.1,M,-11.7,M,,*43"
    },
    {
      "t": 828843,
      "g": "$GPGGA,220544.20,1559.39902,S,04802.66431,W,1,07,1.00,1236.2,M,-11.7,M,,*4D"
    },
    {
      "t": 829049,
      "g": "$GPGGA,220544.40,1559.39922,S,04802.66441,W,1,07,1.00,1236.1,M,-11.7,M,,*4D"
    },
    {
      "t": 829246,
      "g": "$GPGGA,220544.60,1559.39947,S,04802.66452,W,1,07,1.00,1236.2,M,-11.7,M,,*4D"
    },
    {
      "t": 829451,
      "g": "$GPGGA,220544.80,1559.39959,S,04802.66461,W,1,07,1.00,1236.2,M,-11.7,M,,*4C"
    },
    {
      "t": 829646,
      "g": "$GPGGA,220545.00,1559.39982,S,04802.66467,W,1,07,1.00,1236.2,M,-11.7,M,,*45"
    },
    {
      "t": 829851,
      "g": "$GPGGA,220545.20,1559.40001,S,04802.66472,W,1,07,1.00,1236.2,M,-11.7,M,,*4F"
    },
    {
      "t": 830047,
      "g": "$GPGGA,220545.40,1559.40028,S,04802.66483,W,1,07,1.00,1236.2,M,-11.7,M,,*4C"
    },
    {
      "t": 830246,
      "g": "$GPGGA,220545.60,1559.40063,S,04802.66492,W,1,07,1.00,1236.2,M,-11.7,M,,*41"
    },
    {
      "t": 830450,
      "g": "$GPGGA,220545.80,1559.40079,S,04802.66495,W,1,08,0.96,1236.2,M,-11.7,M,,*42"
    },
    {
      "t": 830652,
      "g": "$GPGGA,220546.00,1559.40097,S,04802.66501,W,1,08,0.96,1236.2,M,-11.7,M,,*45"
    },
    {
      "t": 830847,
      "g": "$GPGGA,220546.20,1559.40116,S,04802.66508,W,1,08,0.96,1236.2,M,-11.7,M,,*46"
    },
    {
      "t": 831052,
      "g": "$GPGGA,220546.40,1559.40125,S,04802.66510,W,1,08,0.96,1236.3,M,-11.7,M,,*48"
    },
    {
      "t": 831246,
      "g": "$GPGGA,220546.60,1559.40133,S,04802.66510,W,1,08,0.96,1236.3,M,-11.7,M,,*4D"
    },
    {
      "t": 831452,
      "g": "$GPGGA,220546.80,1559.40130,S,04802.66510,W,1,08,0.96,1236.4,M,-11.7,M,,*47"
    },
    {
      "t": 831646,
      "g": "$GPGGA,220547.00,1559.40132,S,04802.66510,W,1,08,0.96,1236.4,M,-11.7,M,,*4C"
    },
    {
      "t": 831851,
      "g": "$GPGGA,220547.20,1559.40132,S,04802.66510,W,1,08,0.96,1236.5,M,-11.7,M,,*4F"
    },
    {
      "t": 832048,
      "g": "$GPGGA,220547.40,1559.40132,S,04802.66509,W,1,08,0.96,1236.5,M,-11.7,M,,*41"
    },
    {
      "t": 832250,
      "g": "$GPGGA,220547.60,1559.40140,S,04802.66511,W,1,08,0.96,1236.5,M,-11.7,M,,*4F"
    },
    {
      "t": 832446,
      "g": "$GPGGA,220547.80,1559.40151,S,04802.66514,W,1,08,0.96,1236.6,M,-11.7,M,,*47"
    },
    {
      "t": 832651,
      "g": "$GPGGA,220548.00,1559.40161,S,04802.66515,W,1,08,0.96,1236.6,M,-11.7,M,,*42"
    },
    {
      "t": 832846,
      "g": "$GPGGA,220548.20,1559.40164,S,04802.66514,W,1,08,0.96,1236.7,M,-11.7,M,,*45"
    },
    {
      "t": 833049,
      "g": "$GPGGA,220548.40,1559.40165,S,04802.66512,W,1,08,0.96,1236.6,M,-11.7,M,,*45"
    },
    {
      "t": 833247,
      "g": "$GPGGA,220548.60,1559.40169,S,04802.66514,W,1,08,0.96,1236.7,M,-11.7,M,,*4C"
    },
    {
      "t": 833449,
      "g": "$GPGGA,220548.80,1559.40171,S,04802.66514,W,1,08,0.96,1236.7,M,-11.7,M,,*4B"
    },
    {
      "t": 833647,
      "g": "$GPGGA,220549.00,1559.40170,S,04802.66512,W,1,08,0.96,1236.7,M,-11.7,M,,*45"
    },
    {
      "t": 833848,
      "g": "$GPGGA,220549.20,1559.40169,S,04802.66511,W,1,08,0.96,1236.8,M,-11.7,M,,*43"
    },
    {
      "t": 834046,
      "g": "$GPGGA,220549.40,1559.40164,S,04802.66507,W,1,08,0.96,1236.8,M,-11.7,M,,*4F"
    },
    {
      "t": 834248,
      "g": "$GPGGA,220549.60,1559.40155,S,04802.66507,W,1,08,0.96,1236.8,M,-11.7,M,,*4F"
    },
    {
      "t": 834446,
      "g": "$GPGGA,220549.80,1559.40156,S,04802.66506,W,1,08,0.96,1236.8,M,-11.7,M,,*43"
    },
    {
      "t": 834650,
      "g": "$GPGGA,220550.00,1559.40157,S,04802.66505,W,1,08,0.96,1236.8,M,-11.7,M,,*41"
    },
    {
      "t": 834847,
      "g": "$GPGGA,220550.20,1559.40157,S,04802.66505,W,1,08,0.96,1236.7,M,-11.7,M,,*4C"
    },
    {
      "t": 835049,
      "g": "$GPGGA,220550.40,1559.40158,S,04802.66505,W,1,08,0.96,1236.7,M,-11.7,M,,*45"
    },
    {
      "t": 835246,
      "g": "$GPGGA,220550.60,1559.40160,S,04802.66504,W,1,08,0.96,1236.7,M,-11.7,M,,*4D"
    },
    {
      "t": 835450,
      "g": "$GPGGA,220550.80,1559.40162,S,04802.66502,W,1,08,0.96,1236.7,M,-11.7,M,,*47"
    },
    {
      "t": 835647,
      "g": "$GPGGA,220551.00,1559.40162,S,04802.66498,W,1,08,0.96,1236.8,M,-11.7,M,,*43"
    },
    {
      "t": 835850,
      "g": "$GPGGA,220551.20,1559.40164,S,04802.66496,W,1,07,1.37,1236.7,M,-11.7,M,,*43"
    },
    {
      "t": 836045,
      "g": "$GPGGA,220551.40,1559.40161,S,04802.66496,W,1,07,1.37,1236.7,M,-11.7,M,,*40"
    },
    {
      "t": 836252,
      "g": "$GPGGA,220551.60,1559.40153,S,04802.66494,W,1,07,1.37,1236.7,M,-11.7,M,,*41"
    },
    {
      "t": 836447,
      "g": "$GPGGA,220551.80,1559.40145,S,04802.66492,W,1,07,1.37,1236.6,M,-11.7,M,,*4F"
    },
    {
      "t": 836650,
      "g": "$GPGGA,220552.00,1559.40139,S,04802.66492,W,1,07,1.37,1236.5,M,-11.7,M,,*4C"
    },
    {
      "t": 836847,
      "g": "$GPGGA,220552.20,1559.40128,S,04802.66488,W,1,07,1.37,1236.5,M,-11.7,M,,*45"
    },
    {
      "t": 837045,
      "g": "$GPGGA,220552.40,1559.40115,S,04802.66484,W,1,07,1.37,1236.3,M,-11.7,M,,*47"
    },
    {
      "t": 837246,
      "g": "$GPGGA,220552.60,1559.40109,S,04802.66480,W,1,07,1.37,1236.4,M,-11.7,M,,*4B"
    },
    {
      "t": 837449,
      "g": "$GPGGA,220552.80,1559.40104,S,04802.66471,W,1,07,1.37,1236.4,M,-11.7,M,,*46"
    },
    {
      "t": 837646,
      "g": "$GPGGA,220553.00,1559.40094,S,04802.66466,W,1,07,1.37,1236.3,M,-11.7,M,,*46"
    },
    {
      "t": 837850,
      "g": "$GPGGA,220553.20,1559.40074,S,04802.66460,W,1,07,1.37,1236.3,M,-11.7,M,,*4C"
    },
    {
      "t": 838046,
      "g": "$GPGGA,220553.40,1559.40061,S,04802.66451,W,1,07,1.37,1236.3,M,-11.7,M,,*4C"
    },
    {
      "t": 838251,
      "g": "$GPGGA,220553.60,1559.40049,S,04802.66444,W,1,07,1.37,1236.2,M,-11.7,M,,*41"
    },
    {
      "t": 838444,
      "g": "$GPGGA,220553.80,1559.40038,S,04802.66435,W,1,07,1.37,1236.1,M,-11.7,M,,*4C"
    },
    {
      "t": 838651,
      "g": "$GPGGA,220554.00,1559.40017,S,04802.66423,W,1,07,1.37,1236.0,M,-11.7,M,,*48"
    },
    {
      "t": 838847,
      "g": "$GPGGA,220554.20,1559.39999,S,04802.66409,W,1,07,1.37,1235.9,M,-11.7,M,,*49"
    },
    {
      "t": 839048,
      "g": "$GPGGA,220554.40,1559.39986,S,04802.66394,W,1,07,1.37,1235.7,M,-11.7,M,,*4C"
    },
    {
      "t": 839246,
      "g": "$GPGGA,220554.60,1559.39976,S,04802.66383,W,1,07,1.37,1235.5,M,-11.7,M,,*45"
    },
    {
      "t": 839451,
      "g": "$GPGGA,220554.80,1559.39967,S,04802.66383,W,1,07,1.37,1235.6,M,-11.7,M,,*48"
    },
    {
      "t": 839644,
      "g": "$GPGGA,220555.00,1559.39963,S,04802.66383,W,1,06,1.85,1235.8,M,-11.7,M,,*43"
    },
    {
      "t": 839855,
      "g": "$GPGGA,220555.20,1559.39955,S,04802.66386,W,1,06,1.85,1235.9,M,-11.7,M,,*40"
    },
    {
      "t": 840044,
      "g": "$GPGGA,220555.40,1559.39952,S,04802.66386,W,1,06,1.85,1236.1,M,-11.7,M,,*4A"
    },
    {
      "t": 840251,
      "g": "$GPGGA,220555.60,1559.39934,S,04802.66383,W,1,07,1.37,1236.1,M,-11.7,M,,*45"
    },
    {
      "t": 840447,
      "g": "$GPGGA,220555.80,1559.39920,S,04802.66379,W,1,07,1.37,1235.9,M,-11.7,M,,*40"
    },
    {
      "t": 840652,
      "g": "$GPGGA,220556.00,1559.39892,S,04802.66366,W,1,07,1.37,1235.9,M,-11.7,M,,*4D"
    },
    {
      "t": 840849,
      "g": "$GPGGA,220556.20,1559.39877,S,04802.66354,W,1,07,1.37,1235.8,M,-11.7,M,,*44"
    },
    {
      "t": 841050,
      "g": "$GPGGA,220556.40,1559.39864,S,04802.66344,W,1,07,1.37,1235.6,M,-11.7,M,,*4F"
    },
    {
      "t": 841244,
      "g": "$GPGGA,220556.60,1559.39837,S,04802.66332,W,1,07,1.37,1235.6,M,-11.7,M,,*4A"
    },
    {
      "t": 841451,
      "g": "$GPGGA,220556.80,1559.39797,S,04802.66314,W,1,07,1.37,1235.5,M,-11.7,M,,*46"
    },
    {
      "t": 841647,
      "g": "$GPGGA,220557.00,1559.39770,S,04802.66299,W,1,07,1.37,1235.4,M,-11.7,M,,*43"
    },
    {
      "t": 841850,
      "g": "$GPGGA,220557.20,1559.39766,S,04802.66298,W,1,07,1.00,1235.5,M,-11.7,M,,*42"
    },
    {
      "t": 842047,
      "g": "$GPGGA,220557.40,1559.39764,S,04802.66305,W,1,07,1.00,1235.6,M,-11.7,M,,*40"
    },
    {
      "t": 842250,
      "g": "$GPGGA,220557.60,1559.39769,S,04802.66304,W,1,07,1.00,1235.7,M,-11.7,M,,*4F"
    },
    {
      "t": 842450,
      "g": "$GPGGA,220557.80,1559.39771,S,04802.66308,W,1,07,1.00,1235.8,M,-11.7,M,,*4B"
    },
    {
      "t": 842647,
      "g": "$GPGGA,220558.00,1559.39781,S,04802.66312,W,1,07,1.00,1235.8,M,-11.7,M,,*48"
    },
    {
      "t": 842849,
      "g": "$GPGGA,220558.20,1559.39792,S,04802.66318,W,1,07,1.00,1235.9,M,-11.7,M,,*43"
    },
    {
      "t": 843051,
      "g": "$GPGGA,220558.40,1559.39801,S,04802.66323,W,1,07,1.00,1236.0,M,-11.7,M,,*42"
    },
    {
      "t": 843247,
      "g": "$GPGGA,220558.60,1559.39808,S,04802.66329,W,1,07,1.00,1236.1,M,-11.7,M,,*42"
    },
    {
      "t": 843450,
      "g": "$GPGGA,220558.80,1559.39804,S,04802.66327,W,1,07,1.00,1236.1,M,-11.7,M,,*4E"
    },
    {
      "t": 843648,
      "g": "$GPGGA,220559.00,1559.39802,S,04802.66320,W,1,07,1.00,1236.0,M,-11.7,M,,*47"
    },
    {
      "t": 843851,
      "g": "$GPGGA,220559.20,1559.39802,S,04802.66323,W,1,07,1.00,1236.1,M,-11.7,M,,*47"
    },
    {
      "t": 844044,
      "g": "$GPGGA,220559.40,1559.39805,S,04802.66333,W,1,07,1.00,1236.2,M,-11.7,M,,*44"
    },
    {
      "t": 844250,
      "g": "$GPGGA,220559.60,1559.39805,S,04802.66336,W,1,07,1.00,1236.4,M,-11.7,M,,*45"
    },
    {
      "t": 844450,
      "g": "$GPGGA,220559.80,1559.39805,S,04802.66338,W,1,07,1.00,1236.5,M,-11.7,M,,*44"
    },
    {
      "t": 844651,
      "g": "$GPGGA,220600.00,1559.39805,S,04802.66338,W,1,07,1.00,1236.6,M,-11.7,M,,*40"
    },
    {
      "t": 844848,
      "g": "$GPGGA,220600.20,1559.39805,S,04802.66345,W,1,07,1.00,1236.7,M,-11.7,M,,*49"
    },
    {
      "t": 845050,
      "g": "$GPGGA,220600.40,1559.39812,S,04802.66360,W,1,07,1.00,1236.8,M,-11.7,M,,*41"
    },
    {
      "t": 845247,
      "g": "$GPGGA,220600.60,1559.39818,S,04802.66377,W,1,07,1.00,1237.2,M,-11.7,M,,*44"
    },
    {
      "t": 845448,
      "g": "$GPGGA,220600.80,1559.39825,S,04802.66386,W,1,07,1.00,1237.4,M,-11.7,M,,*4C"
    },
    {
      "t": 845648,
      "g": "$GPGGA,220601.00,1559.39832,S,04802.66395,W,1,07,1.00,1237.5,M,-11.7,M,,*40"
    },
    {
      "t": 845848,
      "g": "$GPGGA,220601.20,1559.39843,S,04802.66406,W,1,07,1.00,1237.6,M,-11.7,M,,*4A"
    },
    {
      "t": 846048,
      "g": "$GPGGA,220601.40,1559.39845,S,04802.66418,W,1,07,1.00,1237.8,M,-11.7,M,,*4B"
    },
    {
      "t": 846248,
      "g": "$GPGGA,220601.60,1559.39853,S,04802.66422,W,1,07,1.00,1237.9,M,-11.7,M,,*46"
    },
    {
      "t": 846447,
      "g": "$GPGGA,220601.80,1559.39858,S,04802.66428,W,1,07,1.00,1238.0,M,-11.7,M,,*4F"
    },
    {
      "t": 846649,
      "g": "$GPGGA,220602.00,1559.39865,S,04802.66440,W,1,07,1.00,1238.2,M,-11.7,M,,*46"
    },
    {
      "t": 846846,
      "g": "$GPGGA,220602.20,1559.39873,S,04802.66452,W,1,07,1.00,1238.3,M,-11.7,M,,*41"
    },
    {
      "t": 847053,
      "g": "$GPGGA,220602.40,1559.39873,S,04802.66461,W,1,07,1.00,1238.5,M,-11.7,M,,*41"
    },
    {
      "t": 847246,
      "g": "$GPGGA,220602.60,1559.39879,S,04802.66474,W,1,07,1.00,1238.7,M,-11.7,M,,*4F"
    },
    {
      "t": 847451,
      "g": "$GPGGA,220602.80,1559.39889,S,04802.66482,W,1,07,1.00,1238.7,M,-11.7,M,,*47"
    },
    {
      "t": 847647,
      "g": "$GPGGA,220603.00,1559.39894,S,04802.66483,W,1,07,1.00,1238.8,M,-11.7,M,,*4C"
    },
    {
      "t": 847851,
      "g": "$GPGGA,220603.20,1559.39891,S,04802.66474,W,1,08,0.95,1238.7,M,-11.7,M,,*4E"
    },
    {
      "t": 848047,
      "g": "$GPGGA,220603.40,1559.39886,S,04802.66470,W,1,08,0.95,1238.6,M,-11.7,M,,*4B"
    },
    {
      "t": 848252,
      "g": "$GPGGA,220603.60,1559.39887,S,04802.66470,W,1,08,0.95,1238.7,M,-11.7,M,,*49"
    },
    {
      "t": 848448,
      "g": "$GPGGA,220603.80,1559.39881,S,04802.66471,W,1,08,0.95,1238.7,M,-11.7,M,,*40"
    },
    {
      "t": 848652,
      "g": "$GPGGA,220604.00,1559.39871,S,04802.66471,W,1,08,0.95,1238.8,M,-11.7,M,,*4F"
    },
    {
      "t": 848848,
      "g": "$GPGGA,220604.20,1559.39862,S,04802.66475,W,1,08,0.95,1239.0,M,-11.7,M,,*42"
    },
    {
      "t": 849052,
      "g": "$GPGGA,220604.40,1559.39855,S,04802.66478,W,1,08,0.95,1239.2,M,-11.7,M,,*4F"
    },
    {
      "t": 849251,
      "g": "$GPGGA,220604.60,1559.39846,S,04802.66480,W,1,08,0.95,1239.2,M,-11.7,M,,*48"
    },
    {
      "t": 849446,
      "g": "$GPGGA,220604.80,1559.39844,S,04802.66482,W,1,08,0.95,1239.3,M,-11.7,M,,*47"
    },
    {
      "t": 849650,
      "g": "$GPGGA,220605.00,1559.39838,S,04802.66483,W,1,08,0.95,1239.5,M,-11.7,M,,*42"
    },
    {
      "t": 849851,
      "g": "$GPGGA,220605.20,1559.39821,S,04802.66483,W,1,08,0.95,1239.6,M,-11.7,M,,*4B"
    },
    {
      "t": 850047,
      "g": "$GPGGA,220605.40,1559.39808,S,04802.66480,W,1,08,0.95,1239.6,M,-11.7,M,,*45"
    },
    {
      "t": 850252,
      "g": "$GPGGA,220605.60,1559.39797,S,04802.66473,W,1,08,0.95,1239.6,M,-11.7,M,,*42"
    },
    {
      "t": 850447,
      "g": "$GPGGA,220605.80,1559.39783,S,04802.66462,W,1,08,0.95,1239.7,M,-11.7,M,,*48"
    },
    {
      "t": 850651,
      "g": "$GPGGA,220606.00,1559.39771,S,04802.66455,W,1,08,0.95,1239.8,M,-11.7,M,,*45"
    },
    {
      "t": 850845,
      "g": "$GPGGA,220606.20,1559.39766,S,04802.66451,W,1,08,0.95,1239.9,M,-11.7,M,,*44"
    },
    {
      "t": 851050,
      "g": "$GPGGA,220606.40,1559.39769,S,04802.66447,W,1,08,0.95,1240.0,M,-11.7,M,,*4D"
    },
    {
      "t": 851249,
      "g": "$GPGGA,220606.60,1559.39759,S,04802.66446,W,1,08,0.95,1240.1,M,-11.7,M,,*4C"
    },
    {
      "t": 851450,
      "g": "$GPGGA,220606.80,1559.39745,S,04802.66455,W,1,08,0.95,1240.3,M,-11.7,M,,*4F"
    },
    {
      "t": 851647,
      "g": "$GPGGA,220607.00,1559.39727,S,04802.66466,W,1,08,0.95,1240.5,M,-11.7,M,,*44"
    },
    {
      "t": 851850,
      "g": "$GPGGA,220607.20,1559.39715,S,04802.66473,W,1,08,0.95,1240.6,M,-11.7,M,,*40"
    },
    {
      "t": 852044,
      "g": "$GPGGA,220607.40,1559.39709,S,04802.66476,W,1,07,1.06,1240.8,M,-11.7,M,,*44"
    },
    {
      "t": 852244,
      "g": "$GPGGA,220607.60,1559.39696,S,04802.66480,W,1,07,1.06,1240.8,M,-11.7,M,,*48"
    },
    {
      "t": 852445,
      "g": "$GPGGA,220607.80,1559.39685,S,04802.66476,W,1,07,1.06,1240.9,M,-11.7,M,,*4C"
    },
    {
      "t": 852649,
      "g": "$GPGGA,220608.00,1559.39676,S,04802.66474,W,1,07,1.06,1241.1,M,-11.7,M,,*4C"
    },
    {
      "t": 852845,
      "g": "$GPGGA,220608.20,1559.39670,S,04802.66469,W,1,07,1.06,1241.2,M,-11.7,M,,*47"
    },
    {
      "t": 853046,
      "g": "$GPGGA,220608.40,1559.39665,S,04802.66466,W,1,07,1.06,1241.3,M,-11.7,M,,*4B"
    },
    {
      "t": 853248,
      "g": "$GPGGA,220608.60,1559.39653,S,04802.66468,W,1,07,1.06,1241.6,M,-11.7,M,,*47"
    },
    {
      "t": 853449,
      "g": "$GPGGA,220608.80,1559.39637,S,04802.66474,W,1,07,1.06,1241.8,M,-11.7,M,,*48"
    },
    {
      "t": 853642,
      "g": "$GPGGA,220609.00,1559.39618,S,04802.66486,W,1,07,1.06,1242.0,M,-11.7,M,,*4A"
    },
    {
      "t": 853845,
      "g": "$GPGGA,220609.20,1559.39604,S,04802.66492,W,1,05,3.29,1242.1,M,-11.7,M,,*4C"
    },
    {
      "t": 854042,
      "g": "$GPGGA,220609.40,1559.39593,S,04802.66496,W,1,05,3.29,1242.2,M,-11.7,M,,*40"
    },
    {
      "t": 854245,
      "g": "$GPGGA,220609.60,1559.39581,S,04802.66497,W,1,05,3.29,1242.3,M,-11.7,M,,*41"
    },
    {
      "t": 854443,
      "g": "$GPGGA,220609.80,1559.39568,S,04802.66499,W,1,05,3.29,1242.5,M,-11.7,M,,*40"
    },
    {
      "t": 854644,
      "g": "$GPGGA,220610.00,1559.39558,S,04802.66503,W,1,05,3.29,1242.6,M,-11.7,M,,*42"
    },
    {
      "t": 854844,
      "g": "$GPGGA,220610.20,1559.39553,S,04802.66511,W,1,05,3.29,1242.7,M,-11.7,M,,*49"
    },
    {
      "t": 855042,
      "g": "$GPGGA,220610.40,1559.39546,S,04802.66513,W,1,05,3.29,1242.7,M,-11.7,M,,*49"
    },
    {
      "t": 855242,
      "g": "$GPGGA,220610.60,1559.39537,S,04802.66513,W,1,05,3.28,1242.7,M,-11.7,M,,*4C"
    },
    {
      "t": 855444,
      "g": "$GPGGA,220610.80,1559.39533,S,04802.66504,W,1,05,3.28,1242.8,M,-11.7,M,,*4F"
    },
    {
      "t": 855642,
      "g": "$GPGGA,220611.00,1559.39525,S,04802.66496,W,1,05,3.28,1242.8,M,-11.7,M,,*4B"
    },
    {
      "t": 855846,
      "g": "$GPGGA,220611.20,1559.39515,S,04802.66498,W,1,05,3.28,1242.9,M,-11.7,M,,*45"
    },
    {
      "t": 856042,
      "g": "$GPGGA,220611.40,1559.39510,S,04802.66493,W,1,05,3.28,1242.9,M,-11.7,M,,*4D"
    },
    {
      "t": 856245,
      "g": "$GPGGA,220611.60,1559.39505,S,04802.66484,W,1,05,3.28,1242.8,M,-11.7,M,,*4C"
    },
    {
      "t": 856440,
      "g": "$GPGGA,220611.80,1559.39500,S,04802.66483,W,1,05,3.28,1242.8,M,-11.7,M,,*40"
    },
    {
      "t": 856644,
      "g": "$GPGGA,220612.00,1559.39515,S,04802.66502,W,1,05,3.28,1242.9,M,-11.7,M,,*46"
    },
    {
      "t": 856843,
      "g": "$GPGGA,220612.20,1559.39552,S,04802.66517,W,1,05,3.28,1242.8,M,-11.7,M,,*42"
    },
    {
      "t": 857044,
      "g": "$GPGGA,220612.40,1559.39561,S,04802.66520,W,1,05,3.28,1242.9,M,-11.7,M,,*41"
    },
    {
      "t": 857241,
      "g": "$GPGGA,220612.60,1559.39543,S,04802.66513,W,1,05,3.28,1242.9,M,-11.7,M,,*43"
    },
    {
      "t": 857444,
      "g": "$GPGGA,220612.80,1559.39534,S,04802.66511,W,1,05,3.28,1242.9,M,-11.7,M,,*4F"
    },
    {
      "t": 857643,
      "g": "$GPGGA,220613.00,1559.39546,S,04802.66510,W,1,05,3.28,1242.9,M,-11.7,M,,*42"
    },
    {
      "t": 857842,
      "g": "$GPGGA,220613.20,1559.39557,S,04802.66511,W,1,05,3.28,1242.8,M,-11.7,M,,*40"
    },
    {
      "t": 858043,
      "g": "$GPGGA,220613.40,1559.39584,S,04802.66528,W,1,05,3.28,1242.6,M,-11.7,M,,*4C"
    },
    {
      "t": 858244,
      "g": "$GPGGA,220613.60,1559.39592,S,04802.66530,W,1,05,3.28,1242.5,M,-11.7,M,,*43"
    },
    {
      "t": 858442,
      "g": "$GPGGA,220613.80,1559.39573,S,04802.66523,W,1,05,3.28,1242.5,M,-11.7,M,,*40"
    },
    {
      "t": 858644,
      "g": "$GPGGA,220614.00,1559.39565,S,04802.66524,W,1,05,3.28,1242.6,M,-11.7,M,,*4C"
    },
    {
      "t": 858841,
      "g": "$GPGGA,220614.20,1559.39578,S,04802.66537,W,1,05,3.28,1242.7,M,-11.7,M,,*41"
    },
    {
      "t": 859044,
      "g": "$GPGGA,220614.40,1559.39595,S,04802.66538,W,1,05,3.28,1242.6,M,-11.7,M,,*4A"
    },
    {
      "t": 859241,
      "g": "$GPGGA,220614.60,1559.39591,S,04802.66538,W,1,05,3.28,1242.5,M,-11.7,M,,*4F"
    },
    {
      "t": 859444,
      "g": "$GPGGA,220614.80,1559.39582,S,04802.66538,W,1,05,3.28,1242.5,M,-11.7,M,,*43"
    },
    {
      "t": 859643,
      "g": "$GPGGA,220615.00,1559.39600,S,04802.66540,W,1,05,3.28,1242.6,M,-11.7,M,,*4F"
    },
    {
      "t": 859844,
      "g": "$GPGGA,220615.20,1559.39584,S,04802.66532,W,1,06,1.85,1242.7,M,-11.7,M,,*40"
    },
    {
      "t": 860043,
      "g": "$GPGGA,220615.40,1559.39585,S,04802.66521,W,1,06,1.85,1242.6,M,-11.7,M,,*44"
    },
    {
      "t": 860244,
      "g": "$GPGGA,220615.60,1559.39581,S,04802.66519,W,1,06,1.85,1242.5,M,-11.7,M,,*4A"
    },
    {
      "t": 860443,
      "g": "$GPGGA,220615.80,1559.39569,S,04802.66528,W,1,06,1.85,1242.4,M,-11.7,M,,*41"
    },
    {
      "t": 860645,
      "g": "$GPGGA,220616.00,1559.39538,S,04802.66516,W,1,06,1.85,1242.6,M,-11.7,M,,*41"
    },
    {
      "t": 860842,
      "g": "$GPGGA,220616.20,1559.39518,S,04802.66513,W,1,06,1.85,1242.7,M,-11.7,M,,*45"
    },
    {
      "t": 861045,
      "g": "$GPGGA,220616.40,1559.39495,S,04802.66500,W,1,06,1.85,1242.8,M,-11.7,M,,*4A"
    },
    {
      "t": 861242,
      "g": "$GPGGA,220616.60,1559.39471,S,04802.66484,W,1,06,1.85,1242.8,M,-11.7,M,,*4F"
    },
    {
      "t": 861444,
      "g": "$GPGGA,220616.80,1559.39458,S,04802.66467,W,1,06,1.85,1242.7,M,-11.7,M,,*48"
    },
    {
      "t": 861643,
      "g": "$GPGGA,220617.00,1559.39441,S,04802.66454,W,1,06,1.85,1242.6,M,-11.7,M,,*48"
    },
    {
      "t": 861843,
      "g": "$GPGGA,220617.20,1559.39453,S,04802.66451,W,1,06,1.85,1242.5,M,-11.7,M,,*4F"
    },
    {
      "t": 862045,
      "g": "$GPGGA,220617.40,1559.39439,S,04802.66440,W,1,06,1.85,1242.4,M,-11.7,M,,*44"
    },
    {
      "t": 862245,
      "g": "$GPGGA,220617.60,1559.39431,S,04802.66427,W,1,06,1.85,1242.3,M,-11.7,M,,*48"
    },
    {
      "t": 862442,
      "g": "$GPGGA,220617.80,1559.39413,S,04802.66408,W,1,06,1.85,1242.1,M,-11.7,M,,*49"
    },
    {
      "t": 862646,
      "g": "$GPGGA,220618.00,1559.39442,S,04802.66404,W,1,06,1.85,1242.0,M,-11.7,M,,*47"
    },
    {
      "t": 862843,
      "g": "$GPGGA,220618.20,1559.39418,S,04802.66390,W,1,06,1.85,1241.9,M,-11.7,M,,*4A"
    },
    {
      "t": 863045,
      "g": "$GPGGA,220618.40,1559.39433,S,04802.66390,W,1,06,1.85,1241.8,M,-11.7,M,,*44"
    },
    {
      "t": 863240,
      "g": "$GPGGA,220618.60,1559.39486,S,04802.66401,W,1,05,3.28,1241.6,M,-11.7,M,,*4F"
    },
    {
      "t": 863445,
      "g": "$GPGGA,220618.80,1559.39507,S,04802.66402,W,1,05,3.28,1241.2,M,-11.7,M,,*4E"
    },
    {
      "t": 863644,
      "g": "$GPGGA,220619.00,1559.39496,S,04802.66393,W,1,05,3.28,1241.1,M,-11.7,M,,*42"
    },
    {
      "t": 863848,
      "g": "$GPGGA,220619.20,1559.39468,S,04802.66375,W,1,06,1.85,1241.0,M,-11.7,M,,*4E"
    },
    {
      "t": 864045,
      "g": "$GPGGA,220619.40,1559.39452,S,04802.66369,W,1,06,1.85,1241.0,M,-11.7,M,,*4C"
    },
    {
      "t": 864248,
      "g": "$GPGGA,220619.60,1559.39458,S,04802.66382,W,1,06,1.85,1241.1,M,-11.7,M,,*40"
    },
    {
      "t": 864445,
      "g": "$GPGGA,220619.80,1559.39448,S,04802.66378,W,1,06,1.85,1240.6,M,-11.7,M,,*4C"
    },
    {
      "t": 864646,
      "g": "$GPGGA,220620.00,1559.39438,S,04802.66366,W,1,06,1.85,1240.6,M,-11.7,M,,*46"
    },
    {
      "t": 864845,
      "g": "$GPGGA,220620.20,1559.39423,S,04802.66360,W,1,06,1.85,1240.4,M,-11.7,M,,*4A"
    },
    {
      "t": 865052,
      "g": "$GPGGA,220620.40,1559.39421,S,04802.66356,W,1,07,1.00,1240.3,M,-11.7,M,,*40"
    },
    {
      "t": 865245,
      "g": "$GPGGA,220620.60,1559.39407,S,04802.66342,W,1,07,1.00,1240.0,M,-11.7,M,,*40"
    },
    {
      "t": 865446,
      "g": "$GPGGA,220620.80,1559.39394,S,04802.66337,W,1,07,1.00,1240.0,M,-11.7,M,,*41"
    },
    {
      "t": 865646,
      "g": "$GPGGA,220621.00,1559.39366,S,04802.66326,W,1,07,1.00,1239.8,M,-11.7,M,,*43"
    },
    {
      "t": 865849,
      "g": "$GPGGA,220621.20,1559.39347,S,04802.66306,W,1,07,1.00,1239.4,M,-11.7,M,,*4C"
    },
    {
      "t": 866043,
      "g": "$GPGGA,220621.40,1559.39333,S,04802.66295,W,1,07,1.00,1239.2,M,-11.7,M,,*44"
    },
    {
      "t": 866249,
      "g": "$GPGGA,220621.60,1559.39318,S,04802.66286,W,1,07,1.00,1239.1,M,-11.7,M,,*4E"
    },
    {
      "t": 866444,
      "g": "$GPGGA,220621.80,1559.39300,S,04802.66280,W,1,07,1.00,1239.1,M,-11.7,M,,*4F"
    },
    {
      "t": 866651,
      "g": "$GPGGA,220622.00,1559.39284,S,04802.66278,W,1,07,1.00,1239.2,M,-11.7,M,,*4D"
    },
    {
      "t": 866848,
      "g": "$GPGGA,220622.20,1559.39262,S,04802.66271,W,1,07,1.00,1239.3,M,-11.7,M,,*4F"
    },
    {
      "t": 867050,
      "g": "$GPGGA,220622.40,1559.39244,S,04802.66256,W,1,07,1.00,1239.0,M,-11.7,M,,*4B"
    },
    {
      "t": 867248,
      "g": "$GPGGA,220622.60,1559.39230,S,04802.66241,W,1,07,1.00,1238.7,M,-11.7,M,,*4A"
    },
    {
      "t": 867447,
      "g": "$GPGGA,220622.80,1559.39224,S,04802.66238,W,1,08,0.95,1238.7,M,-11.7,M,,*4D"
    },
    {
      "t": 867649,
      "g": "$GPGGA,220623.00,1559.39214,S,04802.66237,W,1,08,0.95,1238.7,M,-11.7,M,,*48"
    },
    {
      "t": 867852,
      "g": "$GPGGA,220623.20,1559.39222,S,04802.66228,W,1,08,0.95,1238.3,M,-11.7,M,,*45"
    },
    {
      "t": 868048,
      "g": "$GPGGA,220623.40,1559.39224,S,04802.66217,W,1,08,0.95,1237.9,M,-11.7,M,,*4C"
    },
    {
      "t": 868251,
      "g": "$GPGGA,220623.60,1559.39209,S,04802.66208,W,1,08,0.95,1237.9,M,-11.7,M,,*4F"
    },
    {
      "t": 868449,
      "g": "$GPGGA,220623.80,1559.39205,S,04802.66205,W,1,08,0.95,1237.8,M,-11.7,M,,*41"
    },
    {
      "t": 868650,
      "g": "$GPGGA,220624.00,1559.39199,S,04802.66200,W,1,08,0.95,1237.7,M,-11.7,M,,*42"
    },
    {
      "t": 868845,
      "g": "$GPGGA,220624.20,1559.39197,S,04802.66199,W,1,08,0.95,1237.7,M,-11.7,M,,*4D"
    },
    {
      "t": 869051,
      "g": "$GPGGA,220624.40,1559.39204,S,04802.66202,W,1,08,0.95,1237.5,M,-11.7,M,,*41"
    },
    {
      "t": 869249,
      "g": "$GPGGA,220624.60,1559.39205,S,04802.66203,W,1,08,0.95,1237.4,M,-11.7,M,,*42"
    },
    {
      "t": 869450,
      "g": "$GPGGA,220624.80,1559.39202,S,04802.66205,W,1,08,0.95,1237.3,M,-11.7,M,,*4A"
    },
    {
      "t": 869648,
      "g": "$GPGGA,220625.00,1559.39203,S,04802.66209,W,1,08,0.95,1237.2,M,-11.7,M,,*4F"
    },
    {
      "t": 869850,
      "g": "$GPGGA,220625.20,1559.39208,S,04802.66211,W,1,08,0.95,1237.0,M,-11.7,M,,*4D"
    },
    {
      "t": 870048,
      "g": "$GPGGA,220625.40,1559.39220,S,04802.66213,W,1,08,0.95,1237.0,M,-11.7,M,,*43"
    },
    {
      "t": 870247,
      "g": "$GPGGA,220625.60,1559.39235,S,04802.66212,W,1,08,0.95,1236.9,M,-11.7,M,,*4C"
    },
    {
      "t": 870446,
      "g": "$GPGGA,220625.80,1559.39240,S,04802.66222,W,1,08,0.95,1237.1,M,-11.7,M,,*4A"
    },
    {
      "t": 870650,
      "g": "$GPGGA,220626.00,1559.39244,S,04802.66230,W,1,08,0.95,1237.1,M,-11.7,M,,*46"
    },
    {
      "t": 870850,
      "g": "$GPGGA,220626.20,1559.39247,S,04802.66234,W,1,08,0.95,1237.0,M,-11.7,M,,*42"
    },
    {
      "t": 871052,
      "g": "$GPGGA,220626.40,1559.39253,S,04802.66232,W,1,08,0.95,1236.9,M,-11.7,M,,*4F"
    },
    {
      "t": 871245,
      "g": "$GPGGA,220626.60,1559.39252,S,04802.66235,W,1,07,1.19,1236.8,M,-11.7,M,,*40"
    },
    {
      "t": 871446,
      "g": "$GPGGA,220626.80,1559.39253,S,04802.66231,W,1,06,1.27,1237.0,M,-11.7,M,,*4E"
    },
    {
      "t": 871642,
      "g": "$GPGGA,220627.00,1559.39247,S,04802.66221,W,1,06,1.27,1236.9,M,-11.7,M,,*4B"
    },
    {
      "t": 871848,
      "g": "$GPGGA,220627.20,1559.39247,S,04802.66215,W,1,06,1.27,1236.8,M,-11.7,M,,*4F"
    },
    {
      "t": 872045,
      "g": "$GPGGA,220627.40,1559.39240,S,04802.66208,W,1,06,1.27,1236.7,M,-11.7,M,,*4D"
    },
    {
      "t": 872246,
      "g": "$GPGGA,220627.60,1559.39237,S,04802.66200,W,1,06,1.27,1236.4,M,-11.7,M,,*44"
    },
    {
      "t": 872446,
      "g": "$GPGGA,220627.80,1559.39235,S,04802.66194,W,1,06,1.27,1236.2,M,-11.7,M,,*40"
    },
    {
      "t": 872646,
      "g": "$GPGGA,220628.00,1559.39235,S,04802.66190,W,1,06,1.27,1235.9,M,-11.7,M,,*4B"
    },
    {
      "t": 872844,
      "g": "$GPGGA,220628.20,1559.39231,S,04802.66196,W,1,06,1.27,1235.9,M,-11.7,M,,*4B"
    },
    {
      "t": 873046,
      "g": "$GPGGA,220628.40,1559.39239,S,04802.66206,W,1,06,1.27,1236.2,M,-11.7,M,,*47"
    },
    {
      "t": 873244,
      "g": "$GPGGA,220628.60,1559.39233,S,04802.66208,W,1,06,1.27,1236.1,M,-11.7,M,,*42"
    },
    {
      "t": 873449,
      "g": "$GPGGA,220628.80,1559.39232,S,04802.66205,W,1,06,1.27,1235.8,M,-11.7,M,,*4A"
    },
    {
      "t": 873644,
      "g": "$GPGGA,220629.00,1559.39230,S,04802.66202,W,1,06,1.27,1235.6,M,-11.7,M,,*48"
    },
    {
      "t": 873848,
      "g": "$GPGGA,220629.20,1559.39223,S,04802.66198,W,1,06,1.27,1235.5,M,-11.7,M,,*4B"
    },
    {
      "t": 874045,
      "g": "$GPGGA,220629.40,1559.39221,S,04802.66192,W,1,06,1.27,1235.2,M,-11.7,M,,*42"
    },
    {
      "t": 874246,
      "g": "$GPGGA,220629.60,1559.39220,S,04802.66193,W,1,06,1.27,1234.9,M,-11.7,M,,*4A"
    },
    {
      "t": 874446,
      "g": "$GPGGA,220629.80,1559.39208,S,04802.66188,W,1,06,1.27,1234.6,M,-11.7,M,,*4B"
    },
    {
      "t": 874647,
      "g": "$GPGGA,220630.00,1559.39202,S,04802.66187,W,1,06,1.27,1234.3,M,-11.7,M,,*4B"
    },
    {
      "t": 874845,
      "g": "$GPGGA,220630.20,1559.39202,S,04802.66189,W,1,06,1.27,1234.3,M,-11.7,M,,*47"
    },
    {
      "t": 875048,
      "g": "$GPGGA,220630.40,1559.39198,S,04802.66189,W,1,06,1.27,1234.1,M,-11.7,M,,*43"
    },
    {
      "t": 875245,
      "g": "$GPGGA,220630.60,1559.39189,S,04802.66184,W,1,07,1.00,1233.8,M,-11.7,M,,*46"
    },
    {
      "t": 875450,
      "g": "$GPGGA,220630.80,1559.39190,S,04802.66184,W,1,07,1.00,1233.6,M,-11.7,M,,*4E"
    },
    {
      "t": 875645,
      "g": "$GPGGA,220631.00,1559.39193,S,04802.66185,W,1,07,1.00,1233.4,M,-11.7,M,,*47"
    },
    {
      "t": 875846,
      "g": "$GPGGA,220631.20,1559.39201,S,04802.66186,W,1,07,1.00,1233.6,M,-11.7,M,,*4C"
    },
    {
      "t": 876045,
      "g": "$GPGGA,220631.40,1559.39192,S,04802.66183,W,1,07,1.00,1233.6,M,-11.7,M,,*46"
    },
    {
      "t": 876246,
      "g": "$GPGGA,220631.60,1559.39187,S,04802.66184,W,1,07,1.00,1233.6,M,-11.7,M,,*47"
    },
    {
      "t": 876444,
      "g": "$GPGGA,220631.80,1559.39185,S,04802.66184,W,1,07,1.00,1233.5,M,-11.7,M,,*48"
    },
    {
      "t": 876650,
      "g": "$GPGGA,220632.00,1559.39188,S,04802.66184,W,1,07,1.00,1233.5,M,-11.7,M,,*4E"
    },
    {
      "t": 876844,
      "g": "$GPGGA,220632.20,1559.39185,S,04802.66182,W,1,07,1.00,1233.4,M,-11.7,M,,*46"
    },
    {
      "t": 877044,
      "g": "$GPGGA,220632.40,1559.39182,S,04802.66179,W,1,07,1.00,1233.3,M,-11.7,M,,*44"
    },
    {
      "t": 877246,
      "g": "$GPGGA,220632.60,1559.39172,S,04802.66177,W,1,07,1.00,1233.2,M,-11.7,M,,*46"
    },
    {
      "t": 877448,
      "g": "$GPGGA,220632.80,1559.39163,S,04802.66174,W,1,07,1.00,1233.1,M,-11.7,M,,*48"
    },
    {
      "t": 877647,
      "g": "$GPGGA,220633.00,1559.39158,S,04802.66173,W,1,07,1.00,1233.1,M,-11.7,M,,*4E"
    },
    {
      "t": 877846,
      "g": "$GPGGA,220633.20,1559.39154,S,04802.66173,W,1,07,1.00,1233.0,M,-11.7,M,,*41"
    },
    {
      "t": 878045,
      "g": "$GPGGA,220633.40,1559.39151,S,04802.66171,W,1,07,1.00,1232.9,M,-11.7,M,,*48"
    },
    {
      "t": 878247,
      "g": "$GPGGA,220633.60,1559.39154,S,04802.66173,W,1,07,1.00,1232.9,M,-11.7,M,,*4D"
    },
    {
      "t": 878442,
      "g": "$GPGGA,220633.80,1559.39157,S,04802.66175,W,1,07,1.00,1233.0,M,-11.7,M,,*4E"
    },
    {
      "t": 878648,
      "g": "$GPGGA,220634.00,1559.39157,S,04802.66175,W,1,07,1.00,1233.0,M,-11.7,M,,*41"
    },
    {
      "t": 878845,
      "g": "$GPGGA,220634.20,1559.39159,S,04802.66176,W,1,07,1.00,1233.0,M,-11.7,M,,*4E"
    },
    {
      "t": 879047,
      "g": "$GPGGA,220634.40,1559.39158,S,04802.66177,W,1,07,1.00,1233.0,M,-11.7,M,,*48"
    },
    {
      "t": 879242,
      "g": "$GPGGA,220634.60,1559.39161,S,04802.66177,W,1,06,1.27,1233.0,M,-11.7,M,,*44"
    },
    {
      "t": 879444,
      "g": "$GPGGA,220634.80,1559.39167,S,04802.66179,W,1,06,1.27,1233.1,M,-11.7,M,,*43"
    },
    {
      "t": 879644,
      "g": "$GPGGA,220635.00,1559.39164,S,04802.66178,W,1,06,1.27,1233.1,M,-11.7,M,,*48"
    },
    {
      "t": 879843,
      "g": "$GPGGA,220635.20,1559.39165,S,04802.66180,W,1,06,1.27,1233.1,M,-11.7,M,,*4C"
    },
    {
      "t": 880042,
      "g": "$GPGGA,220635.40,1559.39165,S,04802.66181,W,1,06,1.27,1233.2,M,-11.7,M,,*48"
    },
    {
      "t": 880246,
      "g": "$GPGGA,220635.60,1559.39164,S,04802.66182,W,1,06,1.27,1233.2,M,-11.7,M,,*48"
    },
    {
      "t": 880444,
      "g": "$GPGGA,220635.80,1559.39163,S,04802.66183,W,1,06,1.27,1233.2,M,-11.7,M,,*40"
    },
    {
      "t": 880646,
      "g": "$GPGGA,220636.00,1559.39163,S,04802.66184,W,1,06,1.27,1233.2,M,-11.7,M,,*4C"
    },
    {
      "t": 880845,
      "g": "$GPGGA,220636.20,1559.39162,S,04802.66185,W,1,06,1.27,1233.2,M,-11.7,M,,*4E"
    },
    {
      "t": 881045,
      "g": "$GPGGA,220636.40,1559.39160,S,04802.66183,W,1,06,1.27,1233.2,M,-11.7,M,,*4C"
    },
    {
      "t": 881241,
      "g": "$GPGGA,220636.60,1559.39155,S,04802.66180,W,1,06,1.27,1233.1,M,-11.7,M,,*48"
    },
    {
      "t": 881444,
      "g": "$GPGGA,220636.80,1559.39153,S,04802.66179,W,1,06,1.27,1232.9,M,-11.7,M,,*4F"
    },
    {
      "t": 881643,
